# t    gps_x  gps_y  gps_z    eso_x  eso_y  eso_z    eso_vx eso_vy eso_vz   eso_roll eso_pitch eso_yaw   imu_roll imu_pitch imu_yaw   target_x target_y target_z   m1 m2 m3 m4
1.000	0.0000	0.0000	0.0200	0.0000	-0.0000	0.1193	0.0000	-0.0000	-0.0166	0.0000	0.0000	0.0000	0.0000	0.0000	0.0000	0.0000	0.0000	0.0000	0.00	0.00	0.00	0.00
1.008	0.0000	0.0000	0.0200	0.0000	-0.0000	0.1060	0.0000	-0.0000	-0.0311	0.0000	0.0000	0.0000	0.0000	0.0000	0.0000	0.0000	0.0000	0.0013	56.10	56.10	56.10	56.10
1.016	0.0000	0.0000	0.0200	0.0000	-0.0000	0.0943	0.0000	-0.0000	-0.0437	0.0000	0.0000	0.0000	0.0000	0.0000	0.0000	0.0000	0.0000	0.0027	55.18	55.18	55.19	55.18
1.024	0.0000	0.0000	0.0200	0.0000	-0.0000	0.0841	0.0000	-0.0000	-0.0545	0.0000	0.0000	0.0000	0.0000	0.0000	0.0000	0.0000	0.0000	0.0040	54.38	54.38	54.38	54.38
1.032	0.0000	0.0000	0.0200	0.0000	-0.0000	0.0752	0.0000	-0.0000	-0.0639	0.0000	0.0000	0.0000	0.0000	0.0000	0.0000	0.0000	0.0000	0.0053	53.68	53.68	53.68	53.68
1.040	0.0000	0.0000	0.0200	0.0000	-0.0000	0.0674	0.0000	-0.0000	-0.0721	0.0000	0.0000	0.0000	0.0000	0.0000	0.0000	0.0000	0.0000	0.0067	53.07	53.07	53.07	53.07
1.048	0.0000	0.0000	0.0200	0.0000	-0.0000	0.0606	0.0000	-0.0000	-0.0791	0.0000	0.0000	0.0000	0.0000	0.0000	0.0000	0.0000	0.0000	0.0080	52.54	52.54	52.54	52.54
1.056	0.0000	0.0000	0.0200	0.0000	-0.0000	0.0547	0.0000	-0.0000	-0.0851	0.0000	0.0000	0.0000	0.0000	0.0000	0.0000	0.0000	0.0000	0.0093	52.07	52.07	52.08	52.07
1.064	0.0000	0.0000	0.0200	0.0000	-0.0000	0.0495	0.0000	-0.0000	-0.0903	0.0000	0.0000	0.0000	0.0000	0.0000	0.0000	0.0000	0.0000	0.0107	51.67	51.67	51.67	51.67
1.072	0.0000	0.0000	0.0200	0.0000	-0.0000	0.0449	0.0001	-0.0001	-0.0947	0.0000	0.0000	0.0000	0.0000	0.0000	0.0000	0.0000	0.0000	0.0120	51.32	51.32	51.32	51.32
1.080	0.0000	0.0000	0.0200	0.0000	-0.0000	0.0409	0.0001	-0.0001	-0.0985	0.0000	0.0000	0.0000	0.0000	0.0000	0.0000	0.0000	0.0000	0.0133	51.01	51.01	51.01	51.01
1.088	0.0000	0.0000	0.0200	0.0000	-0.0000	0.0375	0.0001	-0.0001	-0.1017	0.0000	0.0000	0.0000	0.0000	0.0000	0.0000	0.0000	0.0000	0.0147	50.74	50.74	50.74	50.74
1.096	0.0000	0.0000	0.0200	0.0000	-0.0000	0.0344	0.0001	-0.0001	-0.1044	0.0000	0.0000	0.0000	0.0000	0.0000	0.0000	0.0000	0.0000	0.0160	50.51	50.51	50.51	50.51
1.104	0.0000	0.0000	0.0200	0.0000	-0.0000	0.0318	0.0001	-0.0001	-0.1067	0.0000	0.0000	0.0000	0.0000	0.0000	0.0000	0.0000	0.0000	0.0173	50.31	50.31	50.31	50.31
1.112	0.0000	0.0000	0.0200	0.0000	-0.0000	0.0295	0.0001	-0.0001	-0.1085	0.0000	0.0000	0.0000	0.0000	0.0000	0.0000	0.0000	0.0000	0.0187	50.14	50.14	50.14	50.14
1.120	0.0000	0.0000	0.0200	0.0000	-0.0000	0.0275	0.0001	-0.0001	-0.1101	0.0000	0.0000	0.0000	0.0000	0.0000	0.0000	0.0000	0.0000	0.0200	49.99	49.99	49.99	49.99
1.128	0.0000	0.0000	0.0200	0.0000	-0.0000	0.0257	0.0001	-0.0001	-0.1114	0.0000	0.0000	0.0000	0.0000	0.0000	0.0000	0.0000	0.0000	0.0213	49.86	49.86	49.86	49.86
1.136	0.0000	0.0000	0.0200	0.0000	-0.0000	0.0242	0.0001	-0.0001	-0.1124	0.0000	0.0000	0.0000	0.0000	0.0000	0.0000	0.0000	0.0000	0.0227	49.74	49.74	49.74	49.74
1.144	0.0000	0.0000	0.0200	0.0000	-0.0000	0.0228	0.0001	-0.0001	-0.1131	0.0000	0.0000	0.0000	0.0000	0.0000	0.0000	0.0000	0.0000	0.0240	49.65	49.65	49.65	49.65
1.152	0.0000	0.0000	0.0200	0.0000	-0.0000	0.0217	0.0001	-0.0001	-0.1137	0.0000	0.0000	0.0000	0.0000	0.0000	0.0000	0.0000	0.0000	0.0253	49.57	49.57	49.57	49.57
1.160	0.0000	0.0000	0.0200	0.0000	-0.0000	0.0207	0.0001	-0.0001	-0.1141	0.0000	0.0000	0.0000	0.0000	0.0000	0.0000	0.0000	0.0000	0.0267	49.49	49.50	49.50	49.50
1.168	0.0000	0.0000	0.0200	0.0000	-0.0000	0.0198	0.0001	-0.0001	-0.1144	0.0000	0.0000	0.0000	0.0000	0.0000	0.0000	0.0000	0.0000	0.0280	49.43	49.44	49.44	49.44
1.176	0.0000	0.0000	0.0200	0.0000	-0.0000	0.0190	0.0001	-0.0001	-0.1146	0.0000	0.0000	0.0000	0.0000	0.0000	0.0000	0.0000	0.0000	0.0293	49.38	49.38	49.38	49.38
1.184	0.0000	0.0000	0.0200	0.0000	-0.0000	0.0184	0.0001	-0.0001	-0.1146	0.0000	0.0000	0.0000	0.0000	0.0000	0.0000	0.0000	0.0000	0.0307	49.34	49.34	49.34	49.34
1.192	0.0000	0.0000	0.0200	0.0000	-0.0000	0.0178	0.0001	-0.0001	-0.1145	0.0000	0.0000	0.0000	0.0000	0.0000	0.0000	0.0000	0.0000	0.0320	49.31	49.31	49.31	49.31
1.200	0.0000	0.0000	0.0200	0.0000	-0.0000	0.0173	0.0001	-0.0001	-0.1144	0.0000	0.0000	0.0000	0.0000	0.0000	0.0000	0.0000	0.0000	0.0333	49.28	49.28	49.28	49.28
1.208	0.0000	0.0000	0.0200	0.0000	-0.0000	0.0168	0.0000	-0.0000	-0.1141	0.0000	0.0000	0.0000	0.0000	0.0000	0.0000	0.0000	0.0000	0.0347	49.25	49.25	49.25	49.25
1.216	0.0000	0.0000	0.0200	0.0000	-0.0000	0.0165	0.0000	-0.0000	-0.1138	-0.0000	-0.0000	0.0000	0.0000	0.0000	0.0000	0.0000	0.0000	0.0360	49.23	49.23	49.23	49.23
1.224	0.0000	0.0000	0.0200	0.0000	-0.0000	0.0161	0.0000	-0.0000	-0.1135	-0.0000	-0.0000	0.0000	0.0000	0.0000	0.0000	0.0000	0.0000	0.0373	49.22	49.22	49.22	49.22
1.232	0.0000	0.0000	0.0200	0.0000	-0.0000	0.0159	0.0000	-0.0000	-0.1131	-0.0000	-0.0000	0.0000	0.0000	0.0000	0.0000	0.0000	0.0000	0.0387	49.21	49.21	49.21	49.21
1.240	0.0000	0.0000	0.0200	0.0000	-0.0000	0.0156	0.0000	-0.0000	-0.1127	-0.0000	-0.0000	0.0000	0.0000	0.0000	0.0000	0.0000	0.0000	0.0400	49.20	49.20	49.20	49.20
1.248	0.0000	0.0000	0.0200	0.0000	-0.0000	0.0154	0.0000	-0.0000	-0.1122	-0.0000	-0.0000	0.0000	0.0000	0.0000	0.0000	0.0000	0.0000	0.0413	49.19	49.19	49.19	49.19
1.256	0.0000	0.0000	0.0200	0.0000	-0.0000	0.0153	0.0000	-0.0000	-0.1117	-0.0000	-0.0000	0.0000	0.0000	0.0000	0.0000	0.0000	0.0000	0.0427	49.19	49.19	49.19	49.19
1.264	0.0000	0.0000	0.0200	0.0000	-0.0000	0.0151	0.0000	-0.0000	-0.1112	-0.0000	-0.0000	0.0000	0.0000	0.0000	0.0000	0.0000	0.0000	0.0440	49.19	49.19	49.19	49.19
1.272	0.0000	0.0000	0.0200	0.0000	-0.0000	0.0150	0.0000	-0.0000	-0.1106	-0.0000	-0.0000	0.0000	0.0000	0.0000	0.0000	0.0000	0.0000	0.0453	49.19	49.19	49.19	49.19
1.280	0.0000	0.0000	0.0200	0.0000	-0.0000	0.0149	0.0000	-0.0000	-0.1100	-0.0000	-0.0000	0.0000	0.0000	0.0000	0.0000	0.0000	0.0000	0.0467	49.20	49.20	49.20	49.20
1.288	0.0000	0.0000	0.0200	0.0000	-0.0000	0.0148	0.0000	-0.0000	-0.1095	-0.0000	-0.0000	0.0000	0.0000	0.0000	0.0000	0.0000	0.0000	0.0480	49.20	49.20	49.20	49.20
1.296	0.0000	0.0000	0.0200	0.0000	-0.0000	0.0147	0.0000	-0.0000	-0.1088	-0.0000	-0.0000	0.0000	0.0000	0.0000	0.0000	0.0000	0.0000	0.0493	49.21	49.21	49.21	49.21
1.304	0.0000	0.0000	0.0200	0.0000	-0.0000	0.0147	0.0000	-0.0000	-0.1082	-0.0000	-0.0000	0.0000	0.0000	0.0000	0.0000	0.0000	0.0000	0.0507	49.21	49.21	49.21	49.21
1.312	0.0000	0.0000	0.0200	0.0000	-0.0000	0.0146	0.0000	-0.0000	-0.1076	-0.0000	-0.0000	0.0000	0.0000	0.0000	0.0000	0.0000	0.0000	0.0520	49.22	49.22	49.22	49.22
1.320	0.0000	0.0000	0.0200	0.0000	-0.0000	0.0146	0.0000	-0.0000	-0.1070	-0.0000	-0.0000	0.0000	0.0000	0.0000	0.0000	0.0000	0.0000	0.0533	49.23	49.23	49.23	49.23
1.328	0.0000	0.0000	0.0200	0.0000	-0.0000	0.0146	0.0000	-0.0000	-0.1063	-0.0000	-0.0000	0.0000	0.0000	0.0000	0.0000	0.0000	0.0000	0.0547	49.24	49.24	49.24	49.24
1.336	0.0000	0.0000	0.0200	0.0000	-0.0000	0.0146	0.0000	-0.0000	-0.1057	-0.0000	-0.0000	0.0000	0.0000	0.0000	0.0000	0.0000	0.0000	0.0560	49.25	49.25	49.25	49.25
1.344	0.0000	0.0000	0.0200	0.0000	-0.0000	0.0145	0.0000	-0.0000	-0.1050	-0.0000	-0.0000	0.0000	0.0000	0.0000	0.0000	0.0000	0.0000	0.0573	49.26	49.26	49.26	49.26
1.352	0.0000	0.0000	0.0200	0.0000	-0.0000	0.0145	0.0000	-0.0000	-0.1044	-0.0000	-0.0000	0.0000	0.0000	0.0000	0.0000	0.0000	0.0000	0.0587	49.27	49.27	49.27	49.27
1.360	0.0000	0.0000	0.0200	0.0000	-0.0000	0.0145	0.0000	-0.0000	-0.1037	-0.0000	-0.0000	0.0000	0.0000	0.0000	0.0000	0.0000	0.0000	0.0600	49.28	49.28	49.28	49.28
1.368	0.0000	0.0000	0.0200	0.0000	-0.0000	0.0145	0.0000	-0.0000	-0.1031	-0.0000	-0.0000	0.0000	0.0000	0.0000	0.0000	0.0000	0.0000	0.0613	49.30	49.30	49.30	49.30
1.376	0.0000	0.0000	0.0200	0.0000	-0.0000	0.0146	0.0000	-0.0000	-0.1024	-0.0000	-0.0000	0.0000	0.0000	0.0000	0.0000	0.0000	0.0000	0.0627	49.31	49.31	49.31	49.31
1.384	0.0000	0.0000	0.0200	0.0000	-0.0000	0.0146	0.0000	-0.0000	-0.1018	-0.0000	-0.0000	0.0000	0.0000	0.0000	0.0000	0.0000	0.0000	0.0640	49.32	49.32	49.32	49.32
1.392	0.0000	0.0000	0.0200	0.0000	-0.0000	0.0146	0.0000	-0.0000	-0.1011	-0.0000	-0.0000	0.0000	0.0000	0.0000	0.0000	0.0000	0.0000	0.0653	49.34	49.34	49.34	49.34
1.400	0.0000	0.0000	0.0200	0.0000	-0.0000	0.0146	0.0000	-0.0000	-0.1004	-0.0000	-0.0000	0.0000	0.0000	0.0000	0.0000	0.0000	0.0000	0.0667	49.35	49.35	49.35	49.35
1.408	0.0000	0.0000	0.0200	0.0000	-0.0000	0.0146	0.0000	-0.0000	-0.0998	-0.0000	-0.0000	0.0000	0.0000	0.0000	0.0000	0.0000	0.0000	0.0680	49.36	49.36	49.36	49.36
1.416	0.0000	0.0000	0.0200	0.0000	-0.0000	0.0146	0.0000	-0.0000	-0.0991	-0.0000	-0.0000	0.0000	0.0000	0.0000	0.0000	0.0000	0.0000	0.0693	49.38	49.38	49.38	49.38
1.424	0.0000	0.0000	0.0200	0.0000	-0.0000	0.0147	0.0000	-0.0000	-0.0985	-0.0000	-0.0000	0.0000	0.0000	0.0000	0.0000	0.0000	0.0000	0.0707	49.39	49.39	49.39	49.39
1.432	0.0000	0.0000	0.0200	0.0000	-0.0000	0.0147	0.0000	-0.0000	-0.0978	-0.0000	-0.0000	0.0000	0.0000	0.0000	0.0000	0.0000	0.0000	0.0720	49.41	49.41	49.41	49.41
1.440	0.0000	0.0000	0.0200	0.0000	-0.0000	0.0147	0.0000	-0.0000	-0.0972	-0.0000	-0.0000	0.0000	0.0000	0.0000	0.0000	0.0000	0.0000	0.0733	49.42	49.42	49.42	49.42
1.448	0.0000	0.0000	0.0200	0.0000	-0.0000	0.0147	0.0000	-0.0000	-0.0965	-0.0000	-0.0000	0.0000	0.0000	0.0000	0.0000	0.0000	0.0000	0.0747	49.44	49.44	49.44	49.44
1.456	0.0000	0.0000	0.0200	0.0000	-0.0000	0.0148	0.0000	-0.0000	-0.0959	-0.0000	-0.0000	0.0000	0.0000	0.0000	0.0000	0.0000	0.0000	0.0760	49.45	49.45	49.45	49.45
1.464	0.0000	0.0000	0.0200	0.0000	-0.0000	0.0148	0.0000	-0.0000	-0.0952	-0.0000	-0.0000	0.0000	0.0000	0.0000	0.0000	0.0000	0.0000	0.0773	49.47	49.47	49.47	49.47
1.472	0.0000	0.0000	0.0200	0.0000	-0.0000	0.0148	0.0000	-0.0000	-0.0946	-0.0000	-0.0000	0.0000	0.0000	0.0000	0.0000	0.0000	0.0000	0.0787	49.48	49.48	49.48	49.48
1.480	0.0000	0.0000	0.0200	0.0000	-0.0000	0.0149	0.0000	-0.0000	-0.0940	-0.0000	-0.0000	0.0000	0.0000	0.0000	0.0000	0.0000	0.0000	0.0800	49.50	49.50	49.50	49.50
1.488	0.0000	0.0000	0.0200	0.0000	-0.0000	0.0149	0.0000	-0.0000	-0.0933	-0.0000	-0.0000	0.0000	0.0000	0.0000	0.0000	0.0000	0.0000	0.0813	49.51	49.51	49.51	49.51
1.496	0.0000	0.0000	0.0200	0.0000	-0.0000	0.0149	0.0000	-0.0000	-0.0927	-0.0000	-0.0000	0.0000	0.0000	0.0000	0.0000	0.0000	0.0000	0.0827	49.53	49.53	49.53	49.53
1.504	0.0000	0.0000	0.0200	0.0000	-0.0000	0.0150	0.0000	-0.0000	-0.0921	-0.0000	-0.0000	0.0000	0.0000	0.0000	0.0000	0.0000	0.0000	0.0840	49.54	49.54	49.54	49.54
1.512	0.0000	0.0000	0.0200	0.0000	-0.0000	0.0150	0.0000	-0.0000	-0.0914	-0.0000	-0.0000	0.0000	0.0000	0.0000	0.0000	0.0000	0.0000	0.0853	49.56	49.56	49.56	49.56
1.520	0.0000	0.0000	0.0200	0.0000	-0.0000	0.0150	0.0000	-0.0000	-0.0908	-0.0000	-0.0000	0.0000	0.0000	0.0000	0.0000	0.0000	0.0000	0.0867	49.57	49.57	49.57	49.57
1.528	0.0000	0.0000	0.0200	0.0000	-0.0000	0.0150	0.0000	-0.0000	-0.0902	-0.0000	-0.0000	0.0000	0.0000	0.0000	0.0000	0.0000	0.0000	0.0880	49.59	49.59	49.59	49.59
1.536	0.0000	0.0000	0.0200	0.0000	-0.0000	0.0151	0.0000	-0.0000	-0.0896	-0.0000	-0.0000	0.0000	0.0000	0.0000	0.0000	0.0000	0.0000	0.0893	49.61	49.61	49.61	49.61
1.544	0.0000	0.0000	0.0200	0.0000	-0.0000	0.0151	0.0000	-0.0000	-0.0889	-0.0000	-0.0000	0.0000	0.0000	0.0000	0.0000	0.0000	0.0000	0.0907	49.62	49.62	49.62	49.62
1.552	0.0000	0.0000	0.0200	0.0000	-0.0000	0.0151	0.0000	-0.0000	-0.0883	-0.0000	-0.0000	0.0000	0.0000	0.0000	0.0000	0.0000	0.0000	0.0920	49.64	49.64	49.64	49.64
1.560	0.0000	0.0000	0.0200	0.0000	-0.0000	0.0152	0.0000	-0.0000	-0.0877	-0.0000	-0.0000	0.0000	0.0000	0.0000	0.0000	0.0000	0.0000	0.0933	49.65	49.65	49.65	49.65
1.568	0.0000	0.0000	0.0200	0.0000	-0.0000	0.0152	0.0000	-0.0000	-0.0871	-0.0000	-0.0000	0.0000	0.0000	0.0000	0.0000	0.0000	0.0000	0.0947	49.67	49.67	49.67	49.67
1.576	0.0000	0.0000	0.0200	0.0000	-0.0000	0.0152	0.0000	-0.0000	-0.0865	-0.0000	-0.0000	0.0000	0.0000	0.0000	0.0000	0.0000	0.0000	0.0960	49.69	49.69	49.69	49.69
1.584	0.0000	0.0000	0.0200	0.0000	-0.0000	0.0153	0.0000	-0.0000	-0.0859	-0.0000	-0.0000	0.0000	0.0000	0.0000	0.0000	0.0000	0.0000	0.0973	49.70	49.70	49.70	49.70
1.592	0.0000	0.0000	0.0200	0.0000	-0.0000	0.0153	0.0000	-0.0000	-0.0853	-0.0000	-0.0000	0.0000	0.0000	0.0000	0.0000	0.0000	0.0000	0.0987	49.72	49.72	49.72	49.72
1.600	0.0000	0.0000	0.0200	0.0000	-0.0000	0.0153	0.0000	-0.0000	-0.0847	-0.0000	-0.0000	0.0000	0.0000	0.0000	0.0000	0.0000	0.0000	0.1000	49.74	49.74	49.74	49.74
1.608	0.0000	0.0000	0.0200	0.0000	-0.0000	0.0154	0.0000	-0.0000	-0.0841	-0.0000	-0.0000	0.0000	0.0000	0.0000	0.0000	0.0000	0.0000	0.1013	49.75	49.75	49.75	49.75
1.616	0.0000	0.0000	0.0200	0.0000	-0.0000	0.0154	0.0000	-0.0000	-0.0835	-0.0000	-0.0000	0.0000	0.0000	0.0000	0.0000	0.0000	0.0000	0.1027	49.77	49.77	49.77	49.77
1.624	0.0000	0.0000	0.0200	0.0000	-0.0000	0.0154	0.0000	-0.0000	-0.0830	-0.0000	-0.0000	0.0000	0.0000	0.0000	0.0000	0.0000	0.0000	0.1040	49.79	49.79	49.79	49.79
1.632	0.0000	0.0000	0.0200	0.0000	-0.0000	0.0155	0.0000	-0.0000	-0.0824	-0.0000	-0.0000	0.0000	0.0000	0.0000	0.0000	0.0000	0.0000	0.1053	49.80	49.80	49.80	49.80
1.640	0.0000	0.0000	0.0200	0.0000	-0.0000	0.0155	0.0000	-0.0000	-0.0818	-0.0000	-0.0000	0.0000	0.0000	0.0000	0.0000	0.0000	0.0000	0.1067	49.82	49.82	49.82	49.82
1.648	0.0000	0.0000	0.0200	0.0000	-0.0000	0.0155	0.0000	-0.0000	-0.0812	-0.0000	-0.0000	0.0000	0.0000	0.0000	0.0000	0.0000	0.0000	0.1080	49.84	49.84	49.84	49.84
1.656	0.0000	0.0000	0.0200	0.0000	-0.0000	0.0156	0.0000	-0.0000	-0.0807	-0.0000	-0.0000	0.0000	0.0000	0.0000	0.0000	0.0000	0.0000	0.1093	49.85	49.85	49.85	49.85
1.664	0.0000	0.0000	0.0200	0.0000	-0.0000	0.0156	0.0000	-0.0000	-0.0801	-0.0000	-0.0000	0.0000	0.0000	0.0000	0.0000	0.0000	0.0000	0.1107	49.87	49.87	49.87	49.87
1.672	0.0000	0.0000	0.0200	0.0000	-0.0000	0.0156	0.0000	-0.0000	-0.0795	-0.0000	-0.0000	0.0000	0.0000	0.0000	0.0000	0.0000	0.0000	0.1120	49.89	49.89	49.89	49.89
1.680	0.0000	0.0000	0.0200	0.0000	-0.0000	0.0156	0.0000	-0.0000	-0.0790	-0.0000	-0.0000	0.0000	0.0000	0.0000	0.0000	0.0000	0.0000	0.1133	49.90	49.90	49.90	49.90
1.688	0.0000	0.0000	0.0200	0.0000	-0.0000	0.0157	0.0000	-0.0000	-0.0784	-0.0000	-0.0000	0.0000	0.0000	0.0000	0.0000	0.0000	0.0000	0.1147	49.92	49.92	49.92	49.92
1.696	0.0000	0.0000	0.0200	0.0000	-0.0000	0.0157	0.0000	-0.0000	-0.0778	-0.0000	-0.0000	0.0000	0.0000	0.0000	0.0000	0.0000	0.0000	0.1160	49.94	49.94	49.94	49.94
1.704	0.0000	0.0000	0.0200	0.0000	-0.0000	0.0157	0.0000	-0.0000	-0.0773	-0.0000	-0.0000	0.0000	0.0000	0.0000	0.0000	0.0000	0.0000	0.1173	49.95	49.95	49.95	49.95
1.712	0.0000	0.0000	0.0200	0.0000	-0.0000	0.0158	0.0000	-0.0000	-0.0767	-0.0000	-0.0000	0.0000	0.0000	0.0000	0.0000	0.0000	0.0000	0.1187	49.97	49.97	49.97	49.97
1.720	0.0000	0.0000	0.0200	0.0000	-0.0000	0.0158	0.0000	-0.0000	-0.0762	-0.0000	-0.0000	0.0000	0.0000	0.0000	0.0000	0.0000	0.0000	0.1200	49.99	49.99	49.99	49.99
1.728	0.0000	0.0000	0.0200	0.0000	-0.0000	0.0158	-0.0000	0.0000	-0.0756	-0.0000	-0.0000	-0.0000	0.0000	0.0000	0.0000	0.0000	0.0000	0.1213	50.01	50.01	50.01	50.01
1.736	0.0000	0.0000	0.0200	0.0000	-0.0000	0.0159	-0.0000	0.0000	-0.0751	-0.0000	-0.0000	-0.0000	0.0000	0.0000	0.0000	0.0000	0.0000	0.1227	50.02	50.02	50.02	50.02
1.744	0.0000	0.0000	0.0200	-0.0000	0.0000	0.0159	-0.0000	0.0000	-0.0746	-0.0000	-0.0000	-0.0000	0.0000	0.0000	0.0000	0.0000	0.0000	0.1240	50.04	50.04	50.04	50.04
1.752	0.0000	0.0000	0.0200	-0.0000	0.0000	0.0159	-0.0000	0.0000	-0.0740	-0.0000	-0.0000	-0.0000	0.0000	0.0000	0.0000	0.0000	0.0000	0.1253	50.06	50.06	50.06	50.06
1.760	0.0000	0.0000	0.0200	-0.0000	0.0000	0.0159	-0.0000	0.0000	-0.0735	-0.0000	-0.0000	-0.0000	0.0000	0.0000	0.0000	0.0000	0.0000	0.1267	50.08	50.08	50.08	50.08
1.768	0.0000	0.0000	0.0200	-0.0000	0.0000	0.0160	-0.0000	0.0000	-0.0730	-0.0000	-0.0000	-0.0000	0.0000	0.0000	0.0000	0.0000	0.0000	0.1280	50.09	50.09	50.09	50.09
1.776	0.0000	0.0000	0.0200	-0.0000	0.0000	0.0160	-0.0000	0.0000	-0.0724	-0.0000	-0.0000	-0.0000	0.0000	0.0000	0.0000	0.0000	0.0000	0.1293	50.11	50.11	50.11	50.11
1.784	0.0000	0.0000	0.0200	-0.0000	0.0000	0.0160	-0.0000	0.0000	-0.0719	-0.0000	-0.0000	-0.0000	0.0000	0.0000	0.0000	0.0000	0.0000	0.1307	50.13	50.13	50.13	50.13
1.792	0.0000	0.0000	0.0200	-0.0000	0.0000	0.0161	-0.0000	0.0000	-0.0714	-0.0000	-0.0000	-0.0000	0.0000	0.0000	0.0000	0.0000	0.0000	0.1320	50.15	50.15	50.15	50.15
1.800	0.0000	0.0000	0.0200	-0.0000	0.0000	0.0161	-0.0000	0.0000	-0.0709	-0.0000	-0.0000	-0.0000	0.0000	0.0000	0.0000	0.0000	0.0000	0.1333	50.17	50.17	50.17	50.17
1.808	0.0000	0.0000	0.0200	-0.0000	0.0000	0.0161	-0.0000	0.0000	-0.0704	-0.0000	-0.0000	-0.0000	0.0000	0.0000	0.0000	0.0000	0.0000	0.1347	50.18	50.18	50.18	50.18
1.816	0.0000	0.0000	0.0200	-0.0000	0.0000	0.0161	-0.0000	0.0000	-0.0698	-0.0000	-0.0000	-0.0000	0.0000	0.0000	0.0000	0.0000	0.0000	0.1360	50.20	50.20	50.20	50.20
1.824	0.0000	0.0000	0.0200	-0.0000	0.0000	0.0162	-0.0000	0.0000	-0.0693	-0.0000	-0.0000	-0.0000	0.0000	0.0000	0.0000	0.0000	0.0000	0.1373	50.22	50.22	50.22	50.22
1.832	0.0000	0.0000	0.0200	-0.0000	0.0000	0.0162	-0.0000	0.0000	-0.0688	-0.0000	-0.0000	-0.0000	0.0000	0.0000	0.0000	0.0000	0.0000	0.1387	50.24	50.24	50.24	50.24
1.840	0.0000	0.0000	0.0200	-0.0000	0.0000	0.0162	-0.0000	0.0000	-0.0683	-0.0000	-0.0000	-0.0000	0.0000	0.0000	0.0000	0.0000	0.0000	0.1400	50.26	50.26	50.26	50.26
1.848	0.0000	0.0000	0.0200	-0.0000	0.0000	0.0163	-0.0000	0.0000	-0.0678	-0.0000	-0.0000	-0.0000	0.0000	0.0000	0.0000	0.0000	0.0000	0.1413	50.27	50.27	50.27	50.27
1.856	0.0000	0.0000	0.0200	-0.0000	0.0000	0.0163	-0.0000	0.0000	-0.0673	-0.0000	-0.0000	-0.0000	0.0000	0.0000	0.0000	0.0000	0.0000	0.1427	50.29	50.29	50.29	50.29
1.864	0.0000	0.0000	0.0200	-0.0000	0.0000	0.0163	-0.0000	0.0000	-0.0668	-0.0000	-0.0000	-0.0000	0.0000	0.0000	0.0000	0.0000	0.0000	0.1440	50.31	50.31	50.31	50.31
1.872	0.0000	0.0000	0.0200	-0.0000	0.0000	0.0163	-0.0000	0.0000	-0.0663	-0.0000	-0.0000	-0.0000	0.0000	0.0000	0.0000	0.0000	0.0000	0.1453	50.33	50.33	50.33	50.33
1.880	0.0000	0.0000	0.0200	-0.0000	0.0000	0.0164	-0.0000	0.0000	-0.0658	-0.0000	-0.0000	-0.0000	0.0000	0.0000	0.0000	0.0000	0.0000	0.1467	50.35	50.35	50.35	50.35
1.888	0.0000	0.0000	0.0200	-0.0000	0.0000	0.0164	-0.0000	0.0000	-0.0654	-0.0000	-0.0000	-0.0000	0.0000	0.0000	0.0000	0.0000	0.0000	0.1480	50.36	50.36	50.36	50.36
1.896	0.0000	0.0000	0.0200	-0.0000	0.0000	0.0164	-0.0000	0.0000	-0.0649	-0.0000	-0.0000	-0.0000	0.0000	0.0000	0.0000	0.0000	0.0000	0.1493	50.38	50.38	50.38	50.38
1.904	0.0000	0.0000	0.0200	-0.0000	0.0000	0.0164	-0.0000	0.0000	-0.0644	-0.0000	-0.0000	-0.0000	0.0000	0.0000	0.0000	0.0000	0.0000	0.1507	50.40	50.40	50.40	50.40
1.912	0.0000	0.0000	0.0200	-0.0000	0.0000	0.0165	-0.0000	0.0000	-0.0639	-0.0000	-0.0000	-0.0000	0.0000	0.0000	0.0000	0.0000	0.0000	0.1520	50.42	50.42	50.42	50.42
1.920	0.0000	0.0000	0.0200	-0.0000	0.0000	0.0165	-0.0000	0.0000	-0.0634	-0.0000	-0.0000	-0.0000	0.0000	0.0000	0.0000	0.0000	0.0000	0.1533	50.44	50.44	50.44	50.44
1.928	0.0000	0.0000	0.0200	-0.0000	0.0000	0.0165	-0.0000	0.0000	-0.0630	-0.0000	-0.0000	-0.0000	0.0000	0.0000	0.0000	0.0000	0.0000	0.1547	50.46	50.46	50.46	50.46
1.936	0.0000	0.0000	0.0200	-0.0000	0.0000	0.0165	-0.0000	0.0000	-0.0625	-0.0000	-0.0000	-0.0000	0.0000	0.0000	0.0000	0.0000	0.0000	0.1560	50.48	50.48	50.48	50.48
1.944	0.0000	0.0000	0.0200	-0.0000	0.0000	0.0166	-0.0000	0.0000	-0.0620	-0.0000	-0.0000	-0.0000	0.0000	0.0000	0.0000	0.0000	0.0000	0.1573	50.50	50.50	50.50	50.50
1.952	0.0000	0.0000	0.0200	-0.0000	0.0000	0.0166	-0.0000	0.0000	-0.0615	-0.0000	-0.0000	-0.0000	0.0000	0.0000	0.0000	0.0000	0.0000	0.1587	50.51	50.51	50.51	50.51
1.960	0.0000	0.0000	0.0200	-0.0000	0.0000	0.0166	-0.0000	0.0000	-0.0611	-0.0000	-0.0000	-0.0000	0.0000	0.0000	0.0000	0.0000	0.0000	0.1600	50.53	50.53	50.53	50.53
1.968	0.0000	0.0000	0.0200	-0.0000	0.0000	0.0166	-0.0000	0.0000	-0.0606	-0.0000	-0.0000	-0.0000	0.0000	0.0000	0.0000	0.0000	0.0000	0.1613	50.55	50.55	50.55	50.55
1.976	0.0000	0.0000	0.0200	-0.0000	0.0000	0.0167	-0.0000	0.0000	-0.0602	-0.0000	-0.0000	-0.0000	0.0000	0.0000	0.0000	0.0000	0.0000	0.1627	50.57	50.57	50.57	50.57
1.984	0.0000	0.0000	0.0200	-0.0000	0.0000	0.0167	-0.0000	0.0000	-0.0597	-0.0000	-0.0000	-0.0000	0.0000	0.0000	0.0000	0.0000	0.0000	0.1640	50.59	50.59	50.59	50.59
1.992	0.0000	0.0000	0.0200	-0.0000	0.0000	0.0167	-0.0000	0.0000	-0.0593	-0.0000	-0.0000	-0.0000	0.0000	0.0000	0.0000	0.0000	0.0000	0.1653	50.61	50.61	50.61	50.61
2.000	0.0000	0.0000	0.0200	-0.0000	0.0000	0.0167	-0.0000	0.0000	-0.0588	-0.0000	-0.0000	-0.0000	0.0000	0.0000	0.0000	0.0000	0.0000	0.1667	50.63	50.63	50.63	50.63
2.008	0.0000	0.0000	0.0200	-0.0000	0.0000	0.0168	-0.0000	0.0000	-0.0584	-0.0000	-0.0000	-0.0000	0.0000	0.0000	0.0000	0.0000	0.0000	0.1680	50.65	50.65	50.65	50.65
2.016	0.0000	0.0000	0.0200	-0.0000	0.0000	0.0168	-0.0000	0.0000	-0.0579	-0.0000	-0.0000	-0.0000	0.0000	0.0000	0.0000	0.0000	0.0000	0.1693	50.67	50.67	50.67	50.67
2.024	0.0000	0.0000	0.0200	-0.0000	0.0000	0.0168	-0.0000	0.0000	-0.0575	-0.0000	-0.0000	-0.0000	0.0000	0.0000	0.0000	0.0000	0.0000	0.1707	50.69	50.69	50.69	50.69
2.032	0.0000	0.0000	0.0200	-0.0000	0.0000	0.0168	-0.0000	0.0000	-0.0570	-0.0000	-0.0000	-0.0000	0.0000	0.0000	0.0000	0.0000	0.0000	0.1720	50.71	50.71	50.71	50.71
2.040	0.0000	0.0000	0.0200	-0.0000	0.0000	0.0169	-0.0000	0.0000	-0.0566	-0.0000	-0.0000	-0.0000	0.0000	0.0000	0.0000	0.0000	0.0000	0.1733	50.73	50.73	50.73	50.73
2.048	0.0000	0.0000	0.0200	-0.0000	0.0000	0.0169	-0.0000	0.0000	-0.0562	-0.0000	-0.0000	-0.0000	0.0000	0.0000	0.0000	0.0000	0.0000	0.1747	50.74	50.74	50.74	50.74
2.056	0.0000	0.0000	0.0200	-0.0000	0.0000	0.0169	-0.0000	0.0000	-0.0557	-0.0000	-0.0000	-0.0000	0.0000	0.0000	0.0000	0.0000	0.0000	0.1760	50.76	50.76	50.76	50.76
2.064	0.0000	0.0000	0.0200	-0.0000	0.0000	0.0169	-0.0000	0.0000	-0.0553	-0.0000	-0.0000	-0.0000	0.0000	0.0000	0.0000	0.0000	0.0000	0.1773	50.78	50.78	50.78	50.78
2.072	0.0000	0.0000	0.0200	-0.0000	0.0000	0.0170	-0.0000	0.0000	-0.0549	-0.0000	-0.0000	-0.0000	0.0000	0.0000	0.0000	0.0000	0.0000	0.1787	50.80	50.80	50.80	50.80
2.080	0.0000	0.0000	0.0200	-0.0000	0.0000	0.0170	-0.0000	0.0000	-0.0544	-0.0000	-0.0000	-0.0000	0.0000	0.0000	0.0000	0.0000	0.0000	0.1800	50.82	50.82	50.82	50.82
2.088	0.0000	0.0000	0.0200	-0.0000	0.0000	0.0170	-0.0000	0.0000	-0.0540	-0.0000	-0.0000	-0.0000	0.0000	0.0000	0.0000	0.0000	0.0000	0.1813	50.84	50.84	50.84	50.84
2.096	0.0000	0.0000	0.0200	-0.0000	0.0000	0.0170	-0.0000	0.0000	-0.0536	-0.0000	-0.0000	-0.0000	0.0000	0.0000	0.0000	0.0000	0.0000	0.1827	50.86	50.86	50.86	50.86
2.104	0.0000	0.0000	0.0200	-0.0000	0.0000	0.0171	-0.0000	0.0000	-0.0532	-0.0000	-0.0000	-0.0000	0.0000	0.0000	0.0000	0.0000	0.0000	0.1840	50.88	50.88	50.88	50.88
2.112	0.0000	0.0000	0.0200	-0.0000	0.0000	0.0171	-0.0000	0.0000	-0.0528	-0.0000	-0.0000	-0.0000	0.0000	0.0000	0.0000	0.0000	0.0000	0.1853	50.90	50.90	50.90	50.90
2.120	0.0000	0.0000	0.0200	-0.0000	0.0000	0.0171	-0.0000	0.0000	-0.0524	-0.0000	-0.0000	-0.0000	0.0000	0.0000	0.0000	0.0000	0.0000	0.1867	50.92	50.92	50.92	50.92
2.128	0.0000	0.0000	0.0200	-0.0000	0.0000	0.0171	-0.0000	0.0000	-0.0519	-0.0000	-0.0000	-0.0000	0.0000	0.0000	0.0000	0.0000	0.0000	0.1880	50.94	50.94	50.94	50.94
2.136	0.0000	0.0000	0.0200	-0.0000	0.0000	0.0171	-0.0000	0.0000	-0.0515	-0.0000	-0.0000	-0.0000	0.0000	0.0000	0.0000	0.0000	0.0000	0.1893	50.96	50.96	50.96	50.96
2.144	0.0000	0.0000	0.0200	-0.0000	0.0000	0.0172	-0.0000	0.0000	-0.0511	-0.0000	-0.0000	-0.0000	0.0000	0.0000	0.0000	0.0000	0.0000	0.1907	50.98	50.98	50.98	50.98
2.152	0.0000	0.0000	0.0200	-0.0000	0.0000	0.0172	-0.0000	0.0000	-0.0507	-0.0000	-0.0000	-0.0000	0.0000	0.0000	0.0000	0.0000	0.0000	0.1920	51.00	51.00	51.00	51.00
2.160	0.0000	0.0000	0.0200	-0.0000	0.0000	0.0172	-0.0000	0.0000	-0.0503	-0.0000	-0.0000	-0.0000	0.0000	0.0000	0.0000	0.0000	0.0000	0.1933	51.02	51.02	51.02	51.02
2.168	0.0000	0.0000	0.0200	-0.0000	0.0000	0.0172	-0.0000	0.0000	-0.0499	-0.0000	-0.0000	-0.0000	0.0000	0.0000	0.0000	0.0000	0.0000	0.1947	51.04	51.04	51.04	51.04
2.176	0.0000	0.0000	0.0200	-0.0000	0.0000	0.0173	-0.0000	0.0000	-0.0495	-0.0000	-0.0000	-0.0000	0.0000	0.0000	0.0000	0.0000	0.0000	0.1960	51.06	51.06	51.06	51.06
2.184	0.0000	0.0000	0.0200	-0.0000	0.0000	0.0173	-0.0000	0.0000	-0.0491	-0.0000	-0.0000	-0.0000	0.0000	0.0000	0.0000	0.0000	0.0000	0.1973	51.08	51.08	51.08	51.08
2.192	0.0000	0.0000	0.0200	-0.0000	0.0000	0.0173	-0.0000	0.0000	-0.0487	-0.0000	-0.0000	-0.0000	0.0000	0.0000	0.0000	0.0000	0.0000	0.1987	51.10	51.10	51.10	51.10
2.200	0.0000	0.0000	0.0200	-0.0000	0.0000	0.0173	-0.0000	0.0000	-0.0484	-0.0000	-0.0000	-0.0000	0.0000	0.0000	0.0000	0.0000	0.0000	0.2000	51.12	51.13	51.13	51.13
2.208	0.0000	0.0000	0.0200	-0.0000	0.0000	0.0173	-0.0000	0.0000	-0.0480	-0.0000	-0.0000	-0.0000	0.0000	0.0000	0.0000	0.0000	0.0000	0.2013	51.15	51.15	51.15	51.15
2.216	0.0000	0.0000	0.0200	-0.0000	0.0000	0.0174	-0.0000	0.0000	-0.0476	-0.0000	-0.0000	-0.0000	0.0000	0.0000	0.0000	0.0000	0.0000	0.2027	51.17	51.17	51.17	51.17
2.224	0.0000	0.0000	0.0200	-0.0000	0.0000	0.0174	-0.0000	0.0000	-0.0472	-0.0000	-0.0000	-0.0000	0.0000	0.0000	0.0000	0.0000	0.0000	0.2040	51.19	51.19	51.19	51.19
2.232	0.0000	0.0000	0.0200	-0.0000	0.0000	0.0174	-0.0000	0.0000	-0.0468	-0.0000	-0.0000	-0.0000	0.0000	0.0000	0.0000	0.0000	0.0000	0.2053	51.21	51.21	51.21	51.21
2.240	0.0000	0.0000	0.0200	-0.0000	0.0000	0.0174	-0.0000	0.0000	-0.0464	-0.0000	-0.0000	-0.0000	0.0000	0.0000	0.0000	0.0000	0.0000	0.2067	51.23	51.23	51.23	51.23
2.248	0.0000	0.0000	0.0200	-0.0000	0.0000	0.0174	-0.0000	0.0000	-0.0461	-0.0000	-0.0000	-0.0000	0.0000	0.0000	0.0000	0.0000	0.0000	0.2080	51.25	51.25	51.25	51.25
2.256	0.0000	0.0000	0.0200	-0.0000	0.0000	0.0175	-0.0000	0.0000	-0.0457	-0.0000	-0.0000	-0.0000	0.0000	0.0000	0.0000	0.0000	0.0000	0.2093	51.27	51.27	51.27	51.27
2.264	0.0000	0.0000	0.0200	-0.0000	0.0000	0.0175	-0.0000	0.0000	-0.0453	-0.0000	-0.0000	-0.0000	0.0000	0.0000	0.0000	0.0000	0.0000	0.2107	51.29	51.29	51.29	51.29
2.272	0.0000	0.0000	0.0200	-0.0000	0.0000	0.0175	-0.0000	0.0000	-0.0450	-0.0000	-0.0000	-0.0000	0.0000	0.0000	0.0000	0.0000	0.0000	0.2120	51.31	51.31	51.31	51.31
2.280	0.0000	0.0000	0.0200	-0.0000	0.0000	0.0175	-0.0000	0.0000	-0.0446	-0.0000	-0.0000	-0.0000	0.0000	0.0000	0.0000	0.0000	0.0000	0.2133	51.33	51.33	51.33	51.33
2.288	0.0000	0.0000	0.0200	-0.0000	0.0000	0.0175	-0.0000	0.0000	-0.0442	-0.0000	-0.0000	-0.0000	0.0000	0.0000	0.0000	0.0000	0.0000	0.2147	51.35	51.35	51.35	51.35
2.296	0.0000	0.0000	0.0200	-0.0000	0.0000	0.0176	-0.0000	0.0000	-0.0439	-0.0000	-0.0000	-0.0000	0.0000	0.0000	0.0000	0.0000	0.0000	0.2160	51.38	51.38	51.38	51.38
2.304	0.0000	0.0000	0.0200	-0.0000	0.0000	0.0176	-0.0000	0.0000	-0.0435	-0.0000	-0.0000	-0.0000	0.0000	0.0000	0.0000	0.0000	0.0000	0.2173	51.40	51.40	51.40	51.40
2.312	0.0000	0.0000	0.0200	-0.0000	0.0000	0.0176	-0.0000	0.0000	-0.0431	-0.0000	-0.0000	-0.0000	0.0000	0.0000	0.0000	0.0000	0.0000	0.2187	51.42	51.42	51.42	51.42
2.320	0.0000	0.0000	0.0200	-0.0000	0.0000	0.0176	-0.0000	0.0000	-0.0428	-0.0000	-0.0000	-0.0000	0.0000	0.0000	0.0000	0.0000	0.0000	0.2200	51.44	51.44	51.44	51.44
2.328	0.0000	0.0000	0.0200	-0.0000	0.0000	0.0176	-0.0000	0.0000	-0.0424	-0.0000	-0.0000	-0.0000	0.0000	0.0000	0.0000	0.0000	0.0000	0.2213	51.46	51.46	51.46	51.46
2.336	0.0000	0.0000	0.0200	-0.0000	0.0000	0.0177	-0.0000	0.0000	-0.0421	-0.0000	-0.0000	-0.0000	0.0000	0.0000	0.0000	0.0000	0.0000	0.2227	51.48	51.48	51.48	51.48
2.344	0.0000	0.0000	0.0200	-0.0000	0.0000	0.0177	-0.0000	0.0000	-0.0417	-0.0000	-0.0000	-0.0000	0.0000	0.0000	0.0000	0.0000	0.0000	0.2240	51.50	51.50	51.50	51.50
2.352	0.0000	0.0000	0.0200	-0.0000	0.0000	0.0177	-0.0000	0.0000	-0.0414	-0.0000	-0.0000	-0.0000	0.0000	0.0000	0.0000	0.0000	0.0000	0.2253	51.52	51.52	51.52	51.52
2.360	0.0000	0.0000	0.0200	-0.0000	0.0000	0.0177	-0.0000	0.0000	-0.0410	-0.0000	-0.0000	-0.0000	0.0000	0.0000	0.0000	0.0000	0.0000	0.2267	51.55	51.55	51.55	51.55
2.368	0.0000	0.0000	0.0200	-0.0000	0.0000	0.0177	-0.0000	0.0000	-0.0407	-0.0000	-0.0000	-0.0000	0.0000	0.0000	0.0000	0.0000	0.0000	0.2280	51.57	51.57	51.57	51.57
2.376	0.0000	0.0000	0.0200	-0.0000	0.0000	0.0178	-0.0000	0.0000	-0.0403	-0.0000	-0.0000	-0.0000	0.0000	0.0000	0.0000	0.0000	0.0000	0.2293	51.59	51.59	51.59	51.59
2.384	0.0000	0.0000	0.0201	-0.0000	0.0000	0.0178	-0.0000	0.0000	-0.0400	-0.0000	-0.0000	-0.0000	0.0000	0.0000	0.0000	0.0000	0.0000	0.2307	51.61	51.61	51.61	51.61
2.392	0.0000	0.0000	0.0201	-0.0000	0.0000	0.0178	-0.0000	0.0000	-0.0396	-0.0000	-0.0000	-0.0000	0.0000	0.0000	0.0000	0.0000	0.0000	0.2320	51.62	51.62	51.62	51.62
2.400	0.0000	0.0000	0.0202	-0.0000	0.0000	0.0179	-0.0000	0.0000	-0.0393	-0.0000	-0.0000	-0.0000	0.0000	0.0000	0.0000	0.0000	0.0000	0.2333	51.64	51.64	51.64	51.64
2.408	0.0000	0.0000	0.0203	-0.0000	0.0000	0.0179	-0.0000	0.0000	-0.0389	-0.0000	-0.0000	-0.0000	0.0000	0.0000	0.0000	0.0000	0.0000	0.2347	51.65	51.65	51.65	51.65
2.416	0.0000	0.0000	0.0205	-0.0000	0.0000	0.0180	-0.0000	0.0000	-0.0385	-0.0000	-0.0000	-0.0000	0.0000	0.0000	0.0000	0.0000	0.0000	0.2360	51.66	51.66	51.66	51.66
2.424	0.0000	0.0000	0.0208	-0.0000	0.0000	0.0181	-0.0000	0.0000	-0.0381	-0.0000	-0.0000	-0.0000	0.0000	0.0000	0.0000	0.0000	0.0000	0.2373	51.67	51.67	51.67	51.67
2.432	0.0000	0.0000	0.0211	-0.0000	0.0000	0.0182	-0.0000	0.0000	-0.0376	-0.0000	-0.0000	-0.0000	0.0000	0.0000	0.0000	0.0000	0.0000	0.2387	51.67	51.67	51.67	51.67
2.440	0.0000	0.0000	0.0214	-0.0000	0.0000	0.0184	-0.0000	0.0000	-0.0372	-0.0000	-0.0000	-0.0000	0.0000	0.0000	0.0000	0.0000	0.0000	0.2400	51.67	51.67	51.67	51.67
2.448	0.0000	0.0000	0.0219	-0.0000	0.0000	0.0186	-0.0000	0.0000	-0.0366	-0.0000	-0.0000	-0.0000	0.0000	0.0000	0.0000	0.0000	0.0000	0.2413	51.66	51.66	51.66	51.66
2.456	0.0000	0.0000	0.0224	-0.0000	0.0000	0.0189	-0.0000	0.0000	-0.0361	-0.0000	-0.0000	-0.0000	0.0000	0.0000	0.0000	0.0000	0.0000	0.2427	51.65	51.65	51.65	51.65
2.464	0.0000	0.0000	0.0231	-0.0000	0.0000	0.0192	-0.0000	0.0000	-0.0354	-0.0000	-0.0000	-0.0000	0.0000	0.0000	0.0000	0.0000	0.0000	0.2440	51.64	51.64	51.64	51.64
2.472	0.0000	0.0000	0.0238	-0.0000	0.0000	0.0195	-0.0000	0.0000	-0.0347	-0.0000	-0.0000	-0.0000	0.0000	0.0000	0.0000	0.0000	0.0000	0.2453	51.62	51.62	51.62	51.62
2.480	0.0000	0.0000	0.0247	-0.0000	0.0000	0.0200	-0.0000	0.0000	-0.0340	-0.0000	-0.0000	-0.0000	0.0000	0.0000	0.0000	0.0000	0.0000	0.2467	51.59	51.59	51.59	51.59
2.488	0.0000	0.0000	0.0256	-0.0000	0.0000	0.0205	-0.0000	0.0000	-0.0331	-0.0000	-0.0000	-0.0000	0.0000	0.0000	0.0000	0.0000	0.0000	0.2480	51.56	51.56	51.56	51.56
2.496	0.0000	0.0000	0.0267	-0.0000	0.0000	0.0211	-0.0000	0.0000	-0.0322	-0.0000	-0.0000	-0.0000	0.0000	0.0000	0.0000	0.0000	0.0000	0.2493	51.53	51.53	51.53	51.53
2.504	0.0000	0.0000	0.0279	-0.0000	0.0000	0.0218	-0.0000	0.0000	-0.0312	-0.0000	-0.0000	-0.0000	0.0000	0.0000	0.0000	0.0000	0.0000	0.2507	51.49	51.49	51.49	51.49
2.512	0.0000	0.0000	0.0293	-0.0000	0.0000	0.0226	-0.0000	0.0000	-0.0300	-0.0000	-0.0000	-0.0000	0.0000	0.0000	0.0000	0.0000	0.0000	0.2520	51.44	51.44	51.44	51.44
2.520	0.0000	0.0000	0.0308	-0.0000	0.0000	0.0235	-0.0000	0.0000	-0.0288	-0.0000	-0.0000	-0.0000	0.0000	0.0000	0.0000	0.0000	0.0000	0.2533	51.39	51.39	51.39	51.39
2.528	0.0000	0.0000	0.0325	-0.0000	0.0000	0.0245	-0.0000	0.0000	-0.0274	-0.0000	-0.0000	-0.0000	0.0000	0.0000	0.0000	0.0000	0.0000	0.2547	51.33	51.33	51.33	51.33
2.536	0.0000	0.0000	0.0344	-0.0000	0.0000	0.0256	-0.0000	0.0000	-0.0260	-0.0000	-0.0000	-0.0000	0.0000	0.0000	0.0000	0.0000	0.0000	0.2560	51.26	51.26	51.26	51.26
2.544	0.0000	0.0000	0.0364	-0.0000	0.0000	0.0268	-0.0000	0.0000	-0.0244	-0.0000	-0.0000	-0.0000	0.0000	0.0000	0.0000	0.0000	0.0000	0.2573	51.19	51.19	51.19	51.19
2.552	0.0000	0.0000	0.0386	-0.0000	0.0000	0.0282	-0.0000	0.0000	-0.0226	-0.0000	-0.0000	-0.0000	0.0000	0.0000	0.0000	0.0000	0.0000	0.2587	51.12	51.12	51.12	51.12
2.560	0.0000	0.0000	0.0410	-0.0000	0.0000	0.0298	-0.0000	0.0000	-0.0207	-0.0000	-0.0000	-0.0000	0.0000	0.0000	0.0000	0.0000	0.0000	0.2600	51.03	51.03	51.03	51.03
2.568	0.0000	0.0000	0.0436	-0.0000	0.0000	0.0315	-0.0000	0.0000	-0.0187	-0.0000	-0.0000	-0.0000	0.0000	0.0000	0.0000	0.0000	0.0000	0.2613	50.94	50.94	50.94	50.94
2.576	0.0000	0.0000	0.0464	-0.0000	0.0000	0.0333	-0.0000	0.0000	-0.0164	-0.0000	-0.0000	-0.0000	0.0000	0.0000	0.0000	0.0000	0.0000	0.2627	50.84	50.84	50.84	50.84
2.584	0.0000	0.0000	0.0494	-0.0000	0.0000	0.0354	-0.0000	0.0000	-0.0140	-0.0000	-0.0000	-0.0000	0.0000	0.0000	0.0000	0.0000	0.0000	0.2640	50.74	50.74	50.74	50.74
2.592	0.0000	0.0000	0.0527	-0.0000	0.0000	0.0376	-0.0000	0.0000	-0.0115	-0.0000	-0.0000	-0.0000	0.0000	0.0000	0.0000	0.0000	0.0000	0.2653	50.63	50.63	50.63	50.63
2.600	0.0000	0.0000	0.0562	-0.0000	0.0000	0.0400	-0.0000	0.0000	-0.0087	-0.0000	-0.0000	-0.0000	0.0000	0.0000	0.0000	0.0000	0.0000	0.2667	50.51	50.51	50.51	50.51
2.608	0.0000	0.0000	0.0599	-0.0000	0.0000	0.0425	-0.0000	0.0000	-0.0057	-0.0000	-0.0000	-0.0000	0.0000	0.0000	0.0000	0.0000	0.0000	0.2680	50.38	50.38	50.38	50.38
2.616	0.0000	0.0000	0.0638	-0.0000	0.0000	0.0453	-0.0000	0.0000	-0.0026	-0.0000	-0.0000	-0.0000	0.0000	0.0000	0.0000	0.0000	0.0000	0.2693	50.25	50.25	50.25	50.25
2.624	0.0000	0.0000	0.0681	-0.0000	0.0000	0.0483	-0.0000	0.0000	0.0008	-0.0000	-0.0000	-0.0000	0.0000	0.0000	0.0000	0.0000	0.0000	0.2707	50.11	50.11	50.11	50.11
2.632	0.0000	0.0000	0.0726	-0.0000	0.0000	0.0516	-0.0000	0.0000	0.0044	-0.0000	-0.0000	-0.0000	0.0000	0.0000	0.0000	0.0000	0.0000	0.2720	49.96	49.96	49.96	49.96
2.640	0.0000	0.0000	0.0773	-0.0000	0.0000	0.0550	-0.0000	0.0000	0.0082	-0.0000	-0.0000	-0.0000	0.0000	0.0000	0.0000	0.0000	0.0000	0.2733	49.80	49.80	49.80	49.80
2.648	0.0000	0.0000	0.0824	-0.0000	0.0000	0.0587	-0.0000	0.0000	0.0123	-0.0000	-0.0000	-0.0000	0.0000	0.0000	0.0000	0.0000	0.0000	0.2747	49.64	49.64	49.64	49.64
2.656	0.0000	0.0000	0.0878	-0.0000	0.0000	0.0627	-0.0000	0.0000	0.0166	-0.0000	-0.0000	-0.0000	0.0000	0.0000	0.0000	0.0000	0.0000	0.2760	49.47	49.47	49.47	49.47
2.664	0.0000	0.0000	0.0934	-0.0000	0.0000	0.0669	-0.0000	0.0000	0.0212	0.0000	0.0000	0.0000	0.0000	0.0000	0.0000	0.0000	0.0000	0.2773	49.29	49.29	49.29	49.29
2.672	0.0000	-0.0000	0.0993	-0.0000	0.0000	0.0713	-0.0000	0.0000	0.0260	0.0000	0.0000	0.0000	0.0000	0.0000	0.0000	0.0000	0.0000	0.2787	49.10	49.10	49.10	49.10
2.680	0.0000	-0.0000	0.1055	-0.0000	0.0000	0.0761	-0.0001	0.0001	0.0311	0.0000	0.0000	0.0000	0.0000	0.0000	0.0000	0.0000	0.0000	0.2800	48.91	48.91	48.91	48.91
2.688	0.0000	-0.0000	0.1120	-0.0000	0.0000	0.0811	-0.0001	0.0001	0.0365	0.0000	0.0000	0.0000	0.0000	0.0000	0.0000	0.0000	0.0000	0.2813	48.71	48.71	48.71	48.71
2.696	0.0000	-0.0000	0.1187	-0.0000	0.0000	0.0863	-0.0001	0.0001	0.0421	0.0000	0.0000	0.0000	0.0000	0.0000	0.0000	0.0000	0.0000	0.2827	48.51	48.51	48.51	48.51
2.704	0.0000	-0.0000	0.1257	-0.0000	0.0000	0.0919	-0.0001	0.0001	0.0480	0.0000	0.0000	0.0000	0.0000	0.0000	0.0000	0.0000	0.0000	0.2840	48.31	48.31	48.31	48.31
2.712	0.0000	-0.0000	0.1330	-0.0000	0.0000	0.0977	-0.0001	0.0001	0.0541	0.0000	0.0000	0.0000	0.0000	0.0000	0.0000	0.0000	0.0000	0.2853	48.10	48.10	48.11	48.10
2.720	0.0000	-0.0000	0.1405	-0.0000	0.0000	0.1037	-0.0001	0.0001	0.0605	0.0000	0.0000	0.0000	0.0000	0.0000	0.0000	0.0000	0.0000	0.2867	47.90	47.90	47.90	47.90
2.728	0.0000	-0.0000	0.1482	-0.0000	0.0000	0.1101	-0.0001	0.0001	0.0671	0.0000	0.0000	0.0000	0.0000	0.0000	0.0000	0.0000	0.0000	0.2880	47.69	47.69	47.69	47.69
2.736	0.0000	-0.0000	0.1561	-0.0000	0.0000	0.1167	-0.0001	0.0001	0.0740	0.0000	0.0000	0.0000	0.0000	0.0000	0.0000	0.0000	0.0000	0.2893	47.48	47.48	47.48	47.48
2.744	0.0000	-0.0000	0.1643	-0.0000	0.0000	0.1235	-0.0001	0.0001	0.0811	0.0000	0.0000	0.0000	0.0000	0.0000	0.0000	0.0000	0.0000	0.2907	47.27	47.27	47.27	47.27
2.752	0.0000	-0.0000	0.1727	-0.0000	0.0000	0.1306	-0.0001	0.0001	0.0885	0.0000	0.0000	0.0000	0.0000	0.0000	0.0000	0.0000	0.0000	0.2920	47.07	47.07	47.07	47.07
2.760	0.0000	-0.0000	0.1812	-0.0000	0.0000	0.1380	-0.0001	0.0001	0.0960	0.0000	0.0000	0.0000	0.0000	0.0000	0.0000	0.0000	0.0000	0.2933	46.86	46.86	46.86	46.86
2.768	0.0000	-0.0000	0.1900	-0.0000	0.0000	0.1455	-0.0001	0.0001	0.1038	0.0000	0.0000	0.0000	0.0000	0.0000	0.0000	0.0000	0.0000	0.2947	46.65	46.65	46.65	46.65
2.776	0.0000	-0.0000	0.1990	-0.0000	0.0000	0.1534	-0.0001	0.0001	0.1118	0.0000	0.0000	0.0000	0.0000	0.0000	0.0000	0.0000	0.0000	0.2960	46.44	46.44	46.44	46.44
2.784	0.0000	-0.0000	0.2081	-0.0000	0.0000	0.1614	-0.0001	0.0001	0.1200	0.0000	0.0000	0.0000	0.0000	0.0000	0.0000	0.0000	0.0000	0.2973	46.24	46.24	46.24	46.24
2.792	0.0000	-0.0000	0.2174	-0.0000	0.0000	0.1697	-0.0001	0.0001	0.1284	0.0000	0.0000	0.0000	0.0000	0.0000	0.0000	0.0000	0.0000	0.2987	46.04	46.04	46.04	46.04
2.800	0.0000	-0.0000	0.2269	-0.0000	0.0000	0.1782	-0.0001	0.0001	0.1370	0.0000	0.0000	0.0000	0.0000	0.0000	0.0000	0.0000	0.0000	0.3000	45.83	45.83	45.83	45.83
2.808	0.0000	-0.0000	0.2365	-0.0000	0.0000	0.1869	-0.0001	0.0001	0.1458	0.0000	0.0000	0.0000	0.0000	0.0000	0.0000	0.0000	0.0000	0.3013	45.63	45.63	45.63	45.63
2.816	0.0000	-0.0000	0.2462	-0.0000	0.0000	0.1958	-0.0001	0.0001	0.1547	0.0000	0.0000	0.0000	0.0000	0.0000	0.0000	0.0000	0.0000	0.3027	45.44	45.43	45.43	45.43
2.824	0.0000	-0.0000	0.2562	-0.0000	0.0000	0.2049	-0.0001	0.0001	0.1638	0.0000	0.0000	0.0000	0.0000	0.0000	0.0000	0.0000	0.0000	0.3040	45.24	45.24	45.24	45.24
2.832	0.0000	-0.0000	0.2662	-0.0000	0.0000	0.2142	-0.0001	0.0001	0.1730	0.0000	0.0000	0.0000	0.0000	0.0000	0.0000	0.0000	0.0000	0.3053	45.04	45.04	45.04	45.04
2.840	0.0000	-0.0000	0.2764	-0.0000	0.0000	0.2237	-0.0001	0.0001	0.1824	0.0000	0.0000	0.0000	0.0001	0.0001	0.0000	0.0000	0.0000	0.3067	44.85	44.85	44.85	44.85
2.848	0.0000	-0.0000	0.2867	-0.0000	0.0000	0.2333	-0.0001	0.0001	0.1919	0.0000	0.0000	0.0000	0.0001	0.0001	0.0000	0.0000	0.0000	0.3080	44.66	44.66	44.66	44.66
2.856	0.0000	-0.0000	0.2971	-0.0000	0.0000	0.2431	-0.0001	0.0001	0.2016	0.0000	0.0000	0.0000	0.0001	0.0001	0.0000	0.0000	0.0000	0.3093	44.48	44.48	44.48	44.48
2.864	0.0000	-0.0000	0.3076	-0.0000	0.0000	0.2531	-0.0001	0.0001	0.2113	0.0000	0.0000	0.0000	0.0001	0.0001	0.0000	0.0000	0.0000	0.3107	44.29	44.29	44.29	44.29
2.872	0.0000	-0.0000	0.3182	-0.0000	0.0000	0.2632	-0.0001	0.0001	0.2212	0.0000	0.0000	0.0000	0.0001	0.0001	0.0000	0.0000	0.0000	0.3120	44.11	44.11	44.11	44.11
2.880	0.0000	-0.0000	0.3290	-0.0000	0.0000	0.2735	-0.0001	0.0001	0.2312	0.0000	0.0000	0.0000	0.0001	0.0001	0.0000	0.0000	0.0000	0.3133	43.93	43.93	43.93	43.93
2.888	0.0000	-0.0000	0.3398	-0.0000	0.0000	0.2839	-0.0001	0.0001	0.2412	0.0000	0.0000	0.0000	0.0001	0.0001	0.0000	0.0000	0.0000	0.3147	43.75	43.75	43.75	43.75
2.896	0.0000	-0.0000	0.3507	-0.0000	0.0000	0.2945	-0.0001	0.0001	0.2514	0.0000	0.0000	0.0000	0.0001	0.0001	0.0000	0.0000	0.0000	0.3160	43.58	43.58	43.58	43.58
2.904	0.0000	-0.0000	0.3617	-0.0000	0.0000	0.3052	-0.0001	0.0001	0.2616	0.0000	0.0000	0.0000	0.0001	0.0001	0.0000	0.0000	0.0000	0.3173	43.41	43.41	43.41	43.41
2.912	0.0000	-0.0000	0.3727	-0.0000	0.0000	0.3159	-0.0001	0.0001	0.2719	0.0000	0.0000	0.0000	0.0001	0.0001	0.0000	0.0000	0.0000	0.3187	43.24	43.24	43.24	43.24
2.920	0.0000	-0.0000	0.3838	-0.0000	0.0000	0.3269	-0.0001	0.0001	0.2822	0.0000	0.0000	0.0000	0.0001	0.0001	0.0000	0.0000	0.0000	0.3200	43.07	43.07	43.07	43.07
2.928	0.0000	-0.0000	0.3950	-0.0000	0.0000	0.3379	-0.0001	0.0001	0.2926	0.0000	0.0000	0.0000	0.0001	0.0001	0.0000	0.0000	0.0000	0.3213	42.90	42.90	42.90	42.90
2.936	0.0000	-0.0000	0.4062	0.0000	-0.0000	0.3490	-0.0001	0.0001	0.3031	0.0000	0.0000	0.0000	0.0000	0.0000	0.0000	0.0000	0.0000	0.3227	42.74	42.74	42.74	42.74
2.944	0.0000	-0.0000	0.4175	0.0000	-0.0000	0.3602	-0.0001	0.0001	0.3136	0.0000	0.0000	0.0000	0.0000	0.0000	0.0000	0.0000	0.0000	0.3240	42.58	42.58	42.58	42.58
2.952	0.0000	-0.0000	0.4288	0.0000	-0.0000	0.3715	-0.0001	0.0001	0.3241	0.0000	0.0000	0.0000	0.0000	0.0000	0.0000	0.0000	0.0000	0.3253	42.43	42.43	42.43	42.43
2.960	0.0000	-0.0000	0.4402	0.0000	-0.0000	0.3829	-0.0001	0.0001	0.3346	0.0000	0.0000	0.0000	0.0000	0.0000	0.0000	0.0000	0.0000	0.3267	42.27	42.27	42.27	42.27
2.968	0.0000	-0.0000	0.4516	0.0000	-0.0000	0.3943	-0.0001	0.0001	0.3452	0.0000	0.0000	0.0000	0.0000	0.0000	0.0000	0.0000	0.0000	0.3280	42.12	42.12	42.12	42.12
2.976	0.0000	-0.0000	0.4630	0.0000	-0.0000	0.4059	-0.0001	0.0001	0.3558	0.0000	0.0000	0.0000	0.0000	0.0000	0.0000	0.0000	0.0000	0.3293	41.97	41.97	41.97	41.97
2.984	0.0000	-0.0000	0.4745	0.0000	-0.0000	0.4175	-0.0001	0.0001	0.3663	0.0000	0.0000	0.0000	0.0000	0.0000	0.0000	0.0000	0.0000	0.3307	41.83	41.83	41.83	41.83
2.992	0.0000	-0.0000	0.4860	0.0000	-0.0000	0.4291	-0.0001	0.0001	0.3769	0.0000	0.0000	0.0000	0.0000	0.0000	0.0000	0.0000	0.0000	0.3320	41.68	41.68	41.68	41.68
3.000	0.0000	-0.0000	0.4975	0.0000	-0.0000	0.4408	-0.0001	0.0001	0.3875	0.0000	0.0000	0.0000	0.0000	0.0000	0.0000	0.0000	0.0000	0.3333	41.54	41.54	41.54	41.54
3.008	0.0000	-0.0000	0.5090	0.0000	-0.0000	0.4526	-0.0001	0.0001	0.3980	0.0000	0.0000	0.0000	0.0000	0.0000	0.0000	0.0000	0.0000	0.3347	41.40	41.40	41.40	41.40
3.016	0.0000	-0.0000	0.5205	0.0000	-0.0000	0.4644	-0.0001	0.0001	0.4085	0.0000	0.0000	0.0000	0.0000	0.0000	0.0000	0.0000	0.0000	0.3360	41.27	41.27	41.27	41.27
3.024	0.0000	-0.0000	0.5320	0.0000	-0.0000	0.4762	-0.0001	0.0001	0.4190	0.0000	0.0000	0.0000	0.0000	0.0000	0.0000	0.0000	0.0000	0.3373	41.14	41.14	41.14	41.14
3.032	0.0000	-0.0000	0.5435	0.0000	-0.0000	0.4880	-0.0001	0.0001	0.4295	0.0000	0.0000	0.0000	0.0000	0.0000	0.0000	0.5000	0.0017	0.5000	71.82	555.44	215.10	0.00
3.040	0.0000	-0.0000	0.5550	0.0000	-0.0000	0.4999	-0.0001	0.0001	0.4399	-0.0007	0.0008	0.0014	-0.0007	0.0008	0.0014	0.5000	0.0034	0.5000	111.64	0.00	0.00	439.43
3.048	0.0000	-0.0000	0.5665	0.0000	-0.0000	0.5118	0.0000	0.0001	0.4503	-0.0021	0.0008	0.0042	-0.0021	0.0008	0.0042	0.5000	0.0050	0.5000	40.52	42.14	41.82	41.60
3.056	0.0000	-0.0000	0.5781	0.0000	-0.0000	0.5238	0.0001	0.0003	0.4607	-0.0036	0.0008	0.0070	-0.0036	0.0008	0.0070	0.5000	0.0067	0.5000	40.82	42.10	41.25	41.38
3.064	0.0000	-0.0000	0.5896	0.0000	-0.0000	0.5357	0.0001	0.0006	0.4710	-0.0052	0.0013	0.0080	-0.0052	0.0013	0.0080	0.4999	0.0084	0.5000	41.68	41.85	40.58	40.91
3.072	0.0000	-0.0000	0.6011	0.0000	-0.0000	0.5477	0.0002	0.0010	0.4812	-0.0085	0.0023	0.0073	-0.0085	0.0023	0.0073	0.4999	0.0101	0.5000	41.82	41.40	40.62	40.65
3.080	0.0000	-0.0000	0.6127	0.0000	-0.0000	0.5597	0.0004	0.0017	0.4915	-0.0141	0.0032	0.0061	-0.0141	0.0032	0.0061	0.4999	0.0117	0.5000	41.04	40.90	41.22	40.80
3.088	0.0001	0.0000	0.6242	0.0000	0.0000	0.5717	0.0006	0.0028	0.5016	-0.0211	0.0043	0.0056	-0.0212	0.0043	0.0056	0.4998	0.0134	0.5000	40.18	40.54	41.67	41.05
3.096	0.0001	0.0000	0.6358	0.0000	0.0000	0.5837	0.0010	0.0044	0.5117	-0.0281	0.0058	0.0057	-0.0281	0.0058	0.0056	0.4998	0.0151	0.5000	39.84	40.29	41.60	41.20
3.104	0.0001	0.0001	0.6473	0.0000	0.0001	0.5957	0.0014	0.0067	0.5217	-0.0337	0.0077	0.0066	-0.0337	0.0077	0.0066	0.4997	0.0168	0.5000	39.50	40.18	41.46	41.27
3.112	0.0001	0.0002	0.6588	0.0001	0.0001	0.6077	0.0020	0.0093	0.5317	-0.0372	0.0099	0.0080	-0.0372	0.0100	0.0080	0.4997	0.0184	0.5000	39.56	40.18	41.01	41.15
3.120	0.0001	0.0003	0.6703	0.0001	0.0002	0.6197	0.0027	0.0123	0.5415	-0.0383	0.0123	0.0097	-0.0383	0.0123	0.0097	0.4996	0.0201	0.5000	39.76	40.24	40.50	40.90
3.128	0.0002	0.0004	0.6818	0.0001	0.0003	0.6317	0.0037	0.0153	0.5513	-0.0372	0.0148	0.0114	-0.0372	0.0148	0.0114	0.4995	0.0218	0.5000	39.94	40.30	40.07	40.59
3.136	0.0002	0.0005	0.6933	0.0001	0.0004	0.6438	0.0048	0.0182	0.5611	-0.0344	0.0179	0.0122	-0.0344	0.0179	0.0122	0.4994	0.0234	0.5000	40.52	40.30	39.45	40.13
3.144	0.0002	0.0007	0.7048	0.0002	0.0006	0.6558	0.0062	0.0210	0.5708	-0.0309	0.0213	0.0128	-0.0309	0.0213	0.0128	0.4994	0.0251	0.5000	40.38	40.19	39.38	39.95
3.152	0.0003	0.0009	0.7162	0.0002	0.0008	0.6678	0.0078	0.0234	0.5804	-0.0275	0.0245	0.0142	-0.0275	0.0245	0.0142	0.4993	0.0268	0.5000	39.94	40.12	39.41	39.96
3.160	0.0004	0.0011	0.7276	0.0003	0.0010	0.6797	0.0097	0.0256	0.5899	-0.0246	0.0278	0.0158	-0.0246	0.0278	0.0159	0.4992	0.0285	0.5000	40.00	40.06	39.06	39.85
3.168	0.0005	0.0013	0.7389	0.0004	0.0012	0.6917	0.0119	0.0276	0.5993	-0.0223	0.0310	0.0171	-0.0223	0.0310	0.0171	0.4991	0.0301	0.5000	40.15	39.89	38.77	39.70
3.176	0.0006	0.0015	0.7502	0.0005	0.0014	0.7036	0.0143	0.0294	0.6087	-0.0212	0.0336	0.0187	-0.0212	0.0337	0.0187	0.4990	0.0318	0.5000	39.71	39.69	38.90	39.73
3.184	0.0007	0.0018	0.7615	0.0006	0.0017	0.7156	0.0169	0.0311	0.6180	-0.0209	0.0353	0.0197	-0.0209	0.0353	0.0197	0.4989	0.0335	0.5000	39.88	39.51	38.66	39.54
3.192	0.0009	0.0020	0.7727	0.0008	0.0019	0.7274	0.0197	0.0329	0.6271	-0.0218	0.0357	0.0204	-0.0218	0.0358	0.0204	0.4988	0.0352	0.5000	39.54	39.34	38.86	39.42
3.200	0.0011	0.0023	0.7839	0.0009	0.0022	0.7393	0.0224	0.0346	0.6362	-0.0237	0.0349	0.0204	-0.0236	0.0349	0.0204	0.4986	0.0368	0.5000	39.45	39.16	38.91	39.21
3.208	0.0012	0.0026	0.7950	0.0011	0.0025	0.7511	0.0251	0.0366	0.6452	-0.0263	0.0333	0.0204	-0.0262	0.0333	0.0205	0.4985	0.0385	0.5000	38.90	39.02	39.25	39.14
3.216	0.0015	0.0029	0.8060	0.0013	0.0028	0.7629	0.0277	0.0387	0.6541	-0.0287	0.0314	0.0211	-0.0287	0.0314	0.0211	0.4984	0.0402	0.5000	38.37	38.95	39.44	39.14
3.224	0.0017	0.0032	0.8170	0.0016	0.0031	0.7746	0.0301	0.0410	0.6628	-0.0303	0.0298	0.0224	-0.0303	0.0298	0.0224	0.4982	0.0418	0.5000	38.09	38.96	39.33	39.12
3.232	0.0019	0.0035	0.8279	0.0018	0.0034	0.7863	0.0324	0.0434	0.6715	-0.0308	0.0289	0.0237	-0.0308	0.0289	0.0237	0.4981	0.0435	0.5000	38.37	38.94	38.87	38.93
3.240	0.0022	0.0039	0.8387	0.0021	0.0038	0.7979	0.0347	0.0459	0.6800	-0.0305	0.0289	0.0242	-0.0305	0.0289	0.0242	0.4980	0.0452	0.5000	38.79	38.82	38.46	38.66
3.248	0.0025	0.0042	0.8495	0.0024	0.0042	0.8095	0.0369	0.0484	0.6884	-0.0302	0.0292	0.0248	-0.0302	0.0292	0.0248	0.4978	0.0468	0.5000	38.49	38.68	38.53	38.66
3.256	0.0028	0.0046	0.8601	0.0027	0.0046	0.8210	0.0391	0.0508	0.6967	-0.0298	0.0298	0.0248	-0.0298	0.0298	0.0248	0.4976	0.0485	0.5000	38.79	38.52	38.21	38.48
3.264	0.0031	0.0050	0.8707	0.0030	0.0050	0.8324	0.0414	0.0532	0.7049	-0.0299	0.0299	0.0250	-0.0299	0.0299	0.0251	0.4975	0.0502	0.5000	38.38	38.40	38.37	38.49
3.272	0.0034	0.0054	0.8813	0.0034	0.0054	0.8438	0.0437	0.0556	0.7129	-0.0301	0.0297	0.0252	-0.0301	0.0297	0.0253	0.4973	0.0518	0.5000	38.34	38.31	38.26	38.39
3.280	0.0037	0.0059	0.8917	0.0037	0.0059	0.8551	0.0460	0.0581	0.7209	-0.0303	0.0292	0.0252	-0.0303	0.0292	0.0252	0.4971	0.0535	0.5000	38.32	38.22	38.18	38.25
3.288	0.0041	0.0063	0.9021	0.0041	0.0063	0.8664	0.0482	0.0605	0.7287	-0.0306	0.0285	0.0252	-0.0306	0.0285	0.0252	0.4969	0.0552	0.5000	38.09	38.14	38.22	38.18
3.296	0.0045	0.0068	0.9123	0.0045	0.0068	0.8775	0.0504	0.0630	0.7363	-0.0307	0.0280	0.0252	-0.0307	0.0280	0.0253	0.4968	0.0568	0.5000	38.03	38.07	38.14	38.09
3.304	0.0049	0.0073	0.9225	0.0049	0.0073	0.8886	0.0525	0.0654	0.7438	-0.0306	0.0275	0.0253	-0.0306	0.0275	0.0253	0.4966	0.0585	0.5000	37.96	38.00	38.04	38.01
3.312	0.0053	0.0078	0.9326	0.0053	0.0078	0.8996	0.0546	0.0679	0.7512	-0.0304	0.0272	0.0253	-0.0304	0.0272	0.0253	0.4964	0.0602	0.5000	37.92	37.92	37.93	37.93
3.320	0.0057	0.0083	0.9425	0.0057	0.0083	0.9105	0.0567	0.0703	0.7585	-0.0302	0.0269	0.0253	-0.0302	0.0269	0.0253	0.4962	0.0618	0.5000	37.86	37.85	37.85	37.86
3.328	0.0061	0.0088	0.9524	0.0062	0.0089	0.9214	0.0587	0.0727	0.7656	-0.0299	0.0265	0.0253	-0.0299	0.0265	0.0253	0.4960	0.0635	0.5000	37.80	37.78	37.77	37.79
3.336	0.0065	0.0093	0.9622	0.0066	0.0095	0.9321	0.0607	0.0751	0.7725	-0.0297	0.0261	0.0253	-0.0297	0.0261	0.0253	0.4957	0.0652	0.5000	37.72	37.71	37.71	37.72
3.344	0.0070	0.0099	0.9719	0.0071	0.0101	0.9428	0.0627	0.0775	0.7793	-0.0295	0.0257	0.0253	-0.0295	0.0257	0.0253	0.4955	0.0668	0.5000	37.65	37.64	37.65	37.66
3.352	0.0075	0.0105	0.9815	0.0076	0.0107	0.9533	0.0646	0.0798	0.7860	-0.0293	0.0252	0.0253	-0.0293	0.0252	0.0253	0.4953	0.0685	0.5000	37.58	37.58	37.59	37.59
3.360	0.0079	0.0111	0.9909	0.0081	0.0113	0.9638	0.0665	0.0821	0.7925	-0.0290	0.0247	0.0253	-0.0290	0.0247	0.0254	0.4951	0.0701	0.5000	37.52	37.52	37.53	37.53
3.368	0.0084	0.0117	1.0003	0.0086	0.0119	0.9741	0.0684	0.0844	0.7988	-0.0288	0.0242	0.0254	-0.0287	0.0242	0.0254	0.4948	0.0718	0.5000	37.46	37.46	37.47	37.47
3.376	0.0089	0.0123	1.0096	0.0091	0.0126	0.9844	0.0702	0.0867	0.8050	-0.0285	0.0237	0.0254	-0.0285	0.0237	0.0254	0.4946	0.0735	0.5000	37.40	37.40	37.41	37.41
3.384	0.0095	0.0130	1.0187	0.0097	0.0132	0.9945	0.0720	0.0890	0.8111	-0.0282	0.0232	0.0254	-0.0282	0.0232	0.0254	0.4943	0.0751	0.5000	37.35	37.35	37.35	37.35
3.392	0.0100	0.0136	1.0277	0.0102	0.0139	1.0046	0.0737	0.0912	0.8170	-0.0279	0.0227	0.0254	-0.0279	0.0227	0.0254	0.4941	0.0768	0.5000	37.29	37.29	37.29	37.30
3.400	0.0105	0.0143	1.0367	0.0108	0.0146	1.0145	0.0754	0.0934	0.8227	-0.0276	0.0222	0.0254	-0.0276	0.0222	0.0254	0.4938	0.0784	0.5000	37.24	37.24	37.24	37.24
3.408	0.0111	0.0149	1.0455	0.0114	0.0153	1.0243	0.0770	0.0955	0.8283	-0.0273	0.0217	0.0254	-0.0273	0.0217	0.0254	0.4935	0.0801	0.5000	37.19	37.19	37.19	37.19
3.416	0.0116	0.0156	1.0542	0.0119	0.0160	1.0340	0.0786	0.0977	0.8337	-0.0270	0.0212	0.0254	-0.0270	0.0212	0.0254	0.4933	0.0817	0.5000	37.14	37.14	37.14	37.14
3.424	0.0122	0.0164	1.0628	0.0125	0.0168	1.0436	0.0802	0.0998	0.8390	-0.0266	0.0207	0.0255	-0.0266	0.0207	0.0255	0.4930	0.0834	0.5000	37.09	37.09	37.10	37.10
3.432	0.0128	0.0171	1.0712	0.0131	0.0175	1.0531	0.0817	0.1019	0.8441	-0.0263	0.0202	0.0255	-0.0263	0.0202	0.0255	0.4927	0.0850	0.5000	37.05	37.05	37.05	37.05
3.440	0.0134	0.0178	1.0796	0.0137	0.0183	1.0625	0.0832	0.1039	0.8490	-0.0260	0.0196	0.0255	-0.0260	0.0196	0.0255	0.4924	0.0867	0.5000	37.01	37.01	37.01	37.01
3.448	0.0140	0.0186	1.0878	0.0144	0.0191	1.0718	0.0846	0.1059	0.8538	-0.0257	0.0191	0.0255	-0.0257	0.0191	0.0255	0.4921	0.0883	0.5000	36.96	36.96	36.97	36.97
3.456	0.0146	0.0193	1.0959	0.0150	0.0198	1.0809	0.0860	0.1079	0.8584	-0.0253	0.0186	0.0255	-0.0253	0.0186	0.0255	0.4918	0.0900	0.5000	36.92	36.92	36.93	36.93
3.464	0.0152	0.0201	1.1039	0.0156	0.0206	1.0899	0.0874	0.1099	0.8628	-0.0250	0.0181	0.0255	-0.0250	0.0181	0.0255	0.4915	0.0916	0.5000	36.89	36.89	36.89	36.89
3.472	0.0158	0.0209	1.1117	0.0163	0.0215	1.0988	0.0887	0.1118	0.8671	-0.0246	0.0175	0.0255	-0.0246	0.0175	0.0255	0.4912	0.0933	0.5000	36.85	36.85	36.85	36.85
3.480	0.0164	0.0217	1.1195	0.0169	0.0223	1.1076	0.0899	0.1137	0.8712	-0.0243	0.0170	0.0256	-0.0243	0.0170	0.0256	0.4909	0.0949	0.5000	36.82	36.82	36.82	36.82
3.488	0.0171	0.0225	1.1271	0.0176	0.0231	1.1162	0.0912	0.1155	0.8752	-0.0240	0.0165	0.0256	-0.0240	0.0165	0.0256	0.4906	0.0966	0.5000	36.78	36.78	36.78	36.78
3.496	0.0177	0.0233	1.1346	0.0183	0.0240	1.1247	0.0923	0.1173	0.8790	-0.0236	0.0160	0.0256	-0.0236	0.0160	0.0256	0.4903	0.0982	0.5000	36.75	36.75	36.75	36.75
3.504	0.0184	0.0241	1.1419	0.0189	0.0248	1.1331	0.0935	0.1191	0.8826	-0.0233	0.0155	0.0256	-0.0233	0.0155	0.0256	0.4899	0.0999	0.5000	36.72	36.72	36.72	36.72
3.512	0.0190	0.0250	1.1492	0.0196	0.0257	1.1414	0.0946	0.1209	0.8860	-0.0230	0.0150	0.0256	-0.0230	0.0150	0.0256	0.4896	0.1015	0.5000	36.69	36.69	36.69	36.69
3.520	0.0197	0.0258	1.1563	0.0203	0.0266	1.1495	0.0956	0.1226	0.8893	-0.0226	0.0145	0.0256	-0.0226	0.0145	0.0256	0.4892	0.1031	0.5000	36.67	36.67	36.67	36.67
3.528	0.0204	0.0267	1.1633	0.0210	0.0275	1.1575	0.0966	0.1243	0.8924	-0.0223	0.0140	0.0256	-0.0223	0.0140	0.0256	0.4889	0.1048	0.5000	36.64	36.64	36.64	36.64
3.536	0.0210	0.0275	1.1701	0.0217	0.0284	1.1654	0.0976	0.1260	0.8954	-0.0220	0.0135	0.0256	-0.0220	0.0135	0.0256	0.4885	0.1064	0.5000	36.62	36.62	36.62	36.62
3.544	0.0217	0.0284	1.1768	0.0224	0.0293	1.1731	0.0985	0.1276	0.8982	-0.0216	0.0130	0.0256	-0.0216	0.0130	0.0256	0.4882	0.1080	0.5000	36.60	36.60	36.60	36.59
3.552	0.0224	0.0293	1.1834	0.0231	0.0302	1.1807	0.0994	0.1292	0.9008	-0.0213	0.0125	0.0257	-0.0213	0.0125	0.0257	0.4878	0.1097	0.5000	36.58	36.58	36.58	36.57
3.560	0.0231	0.0302	1.1899	0.0238	0.0312	1.1882	0.1002	0.1308	0.9033	-0.0210	0.0121	0.0257	-0.0210	0.0121	0.0257	0.4875	0.1113	0.5000	36.56	36.56	36.56	36.56
3.568	0.0238	0.0311	1.1963	0.0246	0.0321	1.1955	0.1010	0.1323	0.9055	-0.0206	0.0116	0.0257	-0.0206	0.0116	0.0257	0.4871	0.1130	0.5000	36.54	36.54	36.54	36.54
3.576	0.0245	0.0321	1.2025	0.0253	0.0331	1.2027	0.1018	0.1339	0.9077	-0.0203	0.0111	0.0257	-0.0203	0.0111	0.0257	0.4867	0.1146	0.5000	36.52	36.52	36.52	36.52
3.584	0.0252	0.0330	1.2085	0.0260	0.0340	1.2098	0.1025	0.1353	0.9096	-0.0200	0.0107	0.0257	-0.0200	0.0107	0.0257	0.4863	0.1162	0.5000	36.51	36.51	36.51	36.51
3.592	0.0259	0.0339	1.2145	0.0267	0.0350	1.2167	0.1032	0.1368	0.9114	-0.0197	0.0102	0.0257	-0.0197	0.0102	0.0257	0.4859	0.1178	0.5000	36.49	36.50	36.50	36.49
3.600	0.0266	0.0349	1.2203	0.0275	0.0360	1.2235	0.1038	0.1382	0.9130	-0.0194	0.0098	0.0257	-0.0194	0.0098	0.0257	0.4855	0.1195	0.5000	36.48	36.48	36.48	36.48
3.608	0.0273	0.0358	1.2260	0.0282	0.0369	1.2302	0.1045	0.1396	0.9145	-0.0191	0.0093	0.0257	-0.0191	0.0093	0.0257	0.4851	0.1211	0.5000	36.47	36.47	36.47	36.47
3.616	0.0281	0.0368	1.2315	0.0290	0.0379	1.2367	0.1050	0.1410	0.9158	-0.0188	0.0089	0.0257	-0.0188	0.0089	0.0257	0.4847	0.1227	0.5000	36.46	36.46	36.46	36.46
3.624	0.0288	0.0378	1.2370	0.0297	0.0389	1.2431	0.1056	0.1423	0.9169	-0.0184	0.0084	0.0257	-0.0185	0.0084	0.0257	0.4843	0.1243	0.5000	36.46	36.46	36.46	36.45
3.632	0.0295	0.0388	1.2423	0.0304	0.0400	1.2493	0.1061	0.1436	0.9179	-0.0181	0.0080	0.0257	-0.0182	0.0080	0.0257	0.4839	0.1260	0.5000	36.45	36.45	36.45	36.45
3.640	0.0303	0.0398	1.2474	0.0312	0.0410	1.2555	0.1065	0.1449	0.9187	-0.0179	0.0076	0.0258	-0.0179	0.0076	0.0258	0.4834	0.1276	0.5000	36.44	36.45	36.44	36.44
3.648	0.0310	0.0408	1.2525	0.0319	0.0420	1.2614	0.1070	0.1461	0.9194	-0.0176	0.0072	0.0258	-0.0176	0.0072	0.0258	0.4830	0.1292	0.5000	36.44	36.44	36.44	36.44
3.656	0.0317	0.0418	1.2574	0.0327	0.0430	1.2673	0.1074	0.1473	0.9199	-0.0173	0.0068	0.0258	-0.0173	0.0068	0.0258	0.4826	0.1308	0.5000	36.44	36.44	36.44	36.44
3.664	0.0325	0.0428	1.2621	0.0334	0.0441	1.2730	0.1078	0.1485	0.9202	-0.0170	0.0064	0.0258	-0.0170	0.0064	0.0258	0.4821	0.1324	0.5000	36.44	36.44	36.44	36.43
3.672	0.0332	0.0438	1.2668	0.0342	0.0451	1.2785	0.1081	0.1497	0.9204	-0.0167	0.0060	0.0258	-0.0167	0.0060	0.0258	0.4817	0.1341	0.5000	36.43	36.44	36.44	36.43
3.680	0.0340	0.0448	1.2713	0.0350	0.0462	1.2839	0.1084	0.1509	0.9204	-0.0164	0.0056	0.0258	-0.0164	0.0056	0.0258	0.4812	0.1357	0.5000	36.44	36.44	36.44	36.43
3.688	0.0347	0.0459	1.2757	0.0357	0.0472	1.2892	0.1087	0.1520	0.9202	-0.0162	0.0052	0.0258	-0.0162	0.0052	0.0258	0.4808	0.1373	0.5000	36.44	36.44	36.44	36.44
3.696	0.0354	0.0469	1.2799	0.0365	0.0483	1.2944	0.1089	0.1531	0.9199	-0.0159	0.0049	0.0258	-0.0159	0.0049	0.0258	0.4803	0.1389	0.5000	36.44	36.44	36.44	36.44
3.704	0.0362	0.0480	1.2840	0.0372	0.0494	1.2994	0.1091	0.1541	0.9195	-0.0156	0.0045	0.0258	-0.0156	0.0045	0.0258	0.4799	0.1405	0.5000	36.45	36.45	36.45	36.44
3.712	0.0369	0.0490	1.2880	0.0380	0.0504	1.3042	0.1093	0.1552	0.9189	-0.0154	0.0041	0.0258	-0.0154	0.0041	0.0258	0.4794	0.1421	0.5000	36.45	36.45	36.45	36.45
3.720	0.0377	0.0501	1.2919	0.0388	0.0515	1.3090	0.1094	0.1562	0.9181	-0.0151	0.0038	0.0258	-0.0151	0.0038	0.0258	0.4789	0.1437	0.5000	36.46	36.46	36.46	36.46
3.728	0.0384	0.0511	1.2956	0.0395	0.0526	1.3136	0.1096	0.1572	0.9172	-0.0148	0.0034	0.0258	-0.0148	0.0034	0.0258	0.4784	0.1453	0.5000	36.47	36.47	36.47	36.46
3.736	0.0392	0.0522	1.2992	0.0403	0.0537	1.3180	0.1097	0.1581	0.9162	-0.0146	0.0031	0.0258	-0.0146	0.0031	0.0258	0.4779	0.1469	0.5000	36.47	36.48	36.48	36.47
3.744	0.0399	0.0533	1.3027	0.0410	0.0548	1.3223	0.1097	0.1591	0.9149	-0.0143	0.0028	0.0258	-0.0143	0.0028	0.0258	0.4774	0.1485	0.5000	36.48	36.49	36.49	36.48
3.752	0.0407	0.0544	1.3060	0.0418	0.0559	1.3265	0.1098	0.1600	0.9136	-0.0141	0.0024	0.0258	-0.0141	0.0024	0.0258	0.4769	0.1501	0.5000	36.50	36.50	36.50	36.49
3.760	0.0414	0.0555	1.3093	0.0426	0.0570	1.3306	0.1098	0.1609	0.9121	-0.0139	0.0021	0.0258	-0.0139	0.0021	0.0258	0.4764	0.1517	0.5000	36.51	36.51	36.51	36.51
3.768	0.0422	0.0566	1.3124	0.0433	0.0581	1.3345	0.1098	0.1618	0.9104	-0.0136	0.0018	0.0258	-0.0136	0.0018	0.0258	0.4759	0.1533	0.5000	36.52	36.52	36.52	36.52
3.776	0.0430	0.0577	1.3153	0.0441	0.0593	1.3382	0.1097	0.1626	0.9086	-0.0134	0.0015	0.0259	-0.0134	0.0015	0.0259	0.4754	0.1549	0.5000	36.53	36.54	36.53	36.53
3.784	0.0437	0.0588	1.3182	0.0448	0.0604	1.3419	0.1097	0.1634	0.9067	-0.0131	0.0012	0.0259	-0.0132	0.0012	0.0259	0.4749	0.1565	0.5000	36.55	36.55	36.55	36.55
3.792	0.0445	0.0599	1.3209	0.0456	0.0615	1.3454	0.1096	0.1642	0.9046	-0.0129	0.0009	0.0259	-0.0129	0.0009	0.0259	0.4743	0.1581	0.5000	36.56	36.57	36.57	36.56
3.800	0.0452	0.0610	1.3235	0.0463	0.0627	1.3487	0.1095	0.1650	0.9024	-0.0127	0.0006	0.0259	-0.0127	0.0006	0.0259	0.4738	0.1597	0.5000	36.58	36.58	36.58	36.58
3.808	0.0460	0.0621	1.3259	0.0471	0.0638	1.3520	0.1093	0.1658	0.9000	-0.0125	0.0003	0.0259	-0.0125	0.0003	0.0259	0.4733	0.1613	0.5000	36.60	36.60	36.60	36.60
3.816	0.0467	0.0633	1.3283	0.0478	0.0649	1.3551	0.1092	0.1665	0.8975	-0.0123	0.0000	0.0259	-0.0123	0.0000	0.0259	0.4727	0.1629	0.5000	36.62	36.62	36.62	36.62
3.824	0.0474	0.0644	1.3305	0.0486	0.0661	1.3580	0.1090	0.1673	0.8949	-0.0121	-0.0003	0.0259	-0.0121	-0.0003	0.0259	0.4722	0.1644	0.5000	36.64	36.64	36.64	36.64
3.832	0.0482	0.0655	1.3326	0.0493	0.0672	1.3608	0.1088	0.1680	0.8921	-0.0118	-0.0005	0.0259	-0.0119	-0.0005	0.0259	0.4716	0.1660	0.5000	36.66	36.66	36.66	36.66
3.840	0.0489	0.0667	1.3346	0.0501	0.0684	1.3635	0.1086	0.1687	0.8892	-0.0116	-0.0008	0.0259	-0.0116	-0.0008	0.0259	0.4711	0.1676	0.5000	36.68	36.68	36.68	36.68
3.848	0.0497	0.0678	1.3365	0.0508	0.0696	1.3661	0.1083	0.1693	0.8862	-0.0114	-0.0011	0.0259	-0.0114	-0.0011	0.0259	0.4705	0.1692	0.5000	36.70	36.70	36.70	36.70
3.856	0.0504	0.0690	1.3382	0.0516	0.0707	1.3685	0.1081	0.1700	0.8830	-0.0112	-0.0013	0.0259	-0.0112	-0.0013	0.0259	0.4699	0.1707	0.5000	36.72	36.72	36.72	36.72
3.864	0.0512	0.0701	1.3398	0.0523	0.0719	1.3708	0.1078	0.1706	0.8797	-0.0110	-0.0016	0.0259	-0.0110	-0.0016	0.0259	0.4694	0.1723	0.5000	36.75	36.75	36.75	36.74
3.872	0.0519	0.0713	1.3413	0.0531	0.0731	1.3730	0.1075	0.1712	0.8763	-0.0108	-0.0018	0.0259	-0.0109	-0.0018	0.0259	0.4688	0.1739	0.5000	36.77	36.77	36.77	36.77
3.880	0.0526	0.0725	1.3427	0.0538	0.0742	1.3751	0.1072	0.1718	0.8728	-0.0107	-0.0021	0.0259	-0.0107	-0.0020	0.0259	0.4682	0.1755	0.5000	36.79	36.80	36.80	36.79
3.888	0.0534	0.0736	1.3440	0.0545	0.0754	1.3770	0.1068	0.1724	0.8691	-0.0105	-0.0023	0.0259	-0.0105	-0.0023	0.0259	0.4676	0.1770	0.5000	36.82	36.82	36.82	36.82
3.896	0.0541	0.0748	1.3451	0.0552	0.0766	1.3788	0.1065	0.1729	0.8653	-0.0103	-0.0025	0.0259	-0.0103	-0.0025	0.0259	0.4670	0.1786	0.5000	36.85	36.85	36.85	36.85
3.904	0.0548	0.0760	1.3462	0.0560	0.0778	1.3805	0.1061	0.1735	0.8614	-0.0101	-0.0027	0.0259	-0.0101	-0.0027	0.0259	0.4664	0.1802	0.5000	36.87	36.87	36.87	36.87
3.912	0.0556	0.0771	1.3471	0.0567	0.0790	1.3820	0.1057	0.1740	0.8574	-0.0099	-0.0030	0.0259	-0.0099	-0.0030	0.0259	0.4658	0.1817	0.5000	36.90	36.90	36.90	36.90
3.920	0.0563	0.0783	1.3479	0.0574	0.0802	1.3834	0.1053	0.1745	0.8532	-0.0097	-0.0032	0.0259	-0.0098	-0.0032	0.0259	0.4652	0.1833	0.5000	36.93	36.93	36.93	36.93
3.928	0.0570	0.0795	1.3486	0.0581	0.0814	1.3847	0.1048	0.1750	0.8490	-0.0096	-0.0034	0.0259	-0.0096	-0.0034	0.0259	0.4646	0.1848	0.5000	36.96	36.96	36.96	36.96
3.936	0.0577	0.0807	1.3492	0.0589	0.0826	1.3859	0.1044	0.1755	0.8446	-0.0094	-0.0036	0.0259	-0.0094	-0.0036	0.0259	0.4640	0.1864	0.5000	36.99	36.99	36.99	36.99
3.944	0.0584	0.0819	1.3497	0.0596	0.0838	1.3869	0.1039	0.1760	0.8401	-0.0092	-0.0038	0.0259	-0.0093	-0.0038	0.0259	0.4633	0.1880	0.5000	37.02	37.02	37.02	37.02
3.952	0.0591	0.0831	1.3501	0.0603	0.0850	1.3879	0.1035	0.1764	0.8355	-0.0091	-0.0040	0.0259	-0.0091	-0.0040	0.0259	0.4627	0.1895	0.5000	37.05	37.05	37.05	37.05
3.960	0.0598	0.0843	1.3504	0.0610	0.0862	1.3887	0.1030	0.1768	0.8308	-0.0089	-0.0042	0.0259	-0.0089	-0.0042	0.0259	0.4621	0.1911	0.5000	37.08	37.08	37.08	37.08
