# t    gps_x  gps_y  gps_z    eso_x  eso_y  eso_z    eso_vx eso_vy eso_vz   eso_roll eso_pitch eso_yaw   imu_roll imu_pitch imu_yaw   target_x target_y target_z   m1 m2 m3 m4
1.000	0.0000	0.0000	0.0200	0.0000	-0.0000	0.1193	0.0000	-0.0000	-0.0166	0.0000	0.0000	0.0000	0.0000	0.0000	0.0000	0.0000	0.0000	0.0000	0.00	0.00	0.00	0.00
1.008	0.0000	0.0000	0.0200	0.0000	-0.0000	0.1060	0.0000	-0.0000	-0.0311	0.0000	0.0000	0.0000	0.0000	0.0000	0.0000	0.0000	0.0000	0.0013	56.10	56.10	56.10	56.10
1.016	0.0000	0.0000	0.0200	0.0000	-0.0000	0.0943	0.0000	-0.0000	-0.0437	0.0000	0.0000	0.0000	0.0000	0.0000	0.0000	0.0000	0.0000	0.0027	55.18	55.18	55.19	55.18
1.024	0.0000	0.0000	0.0200	0.0000	-0.0000	0.0841	0.0000	-0.0000	-0.0545	0.0000	0.0000	0.0000	0.0000	0.0000	0.0000	0.0000	0.0000	0.0040	54.38	54.38	54.38	54.38
1.032	0.0000	0.0000	0.0200	0.0000	-0.0000	0.0752	0.0000	-0.0000	-0.0639	0.0000	0.0000	0.0000	0.0000	0.0000	0.0000	0.0000	0.0000	0.0053	53.68	53.68	53.68	53.68
1.040	0.0000	0.0000	0.0200	0.0000	-0.0000	0.0674	0.0000	-0.0000	-0.0721	0.0000	0.0000	0.0000	0.0000	0.0000	0.0000	0.0000	0.0000	0.0067	53.07	53.07	53.07	53.07
1.048	0.0000	0.0000	0.0200	0.0000	-0.0000	0.0606	0.0000	-0.0000	-0.0791	0.0000	0.0000	0.0000	0.0000	0.0000	0.0000	0.0000	0.0000	0.0080	52.54	52.54	52.54	52.54
1.056	0.0000	0.0000	0.0200	0.0000	-0.0000	0.0547	0.0000	-0.0000	-0.0851	0.0000	0.0000	0.0000	0.0000	0.0000	0.0000	0.0000	0.0000	0.0093	52.07	52.07	52.08	52.07
1.064	0.0000	0.0000	0.0200	0.0000	-0.0000	0.0495	0.0000	-0.0000	-0.0903	0.0000	0.0000	0.0000	0.0000	0.0000	0.0000	0.0000	0.0000	0.0107	51.67	51.67	51.67	51.67
1.072	0.0000	0.0000	0.0200	0.0000	-0.0000	0.0449	0.0001	-0.0001	-0.0947	0.0000	0.0000	0.0000	0.0000	0.0000	0.0000	0.0000	0.0000	0.0120	51.32	51.32	51.32	51.32
1.080	0.0000	0.0000	0.0200	0.0000	-0.0000	0.0409	0.0001	-0.0001	-0.0985	0.0000	0.0000	0.0000	0.0000	0.0000	0.0000	0.0000	0.0000	0.0133	51.01	51.01	51.01	51.01
1.088	0.0000	0.0000	0.0200	0.0000	-0.0000	0.0375	0.0001	-0.0001	-0.1017	0.0000	0.0000	0.0000	0.0000	0.0000	0.0000	0.0000	0.0000	0.0147	50.74	50.74	50.74	50.74
1.096	0.0000	0.0000	0.0200	0.0000	-0.0000	0.0344	0.0001	-0.0001	-0.1044	0.0000	0.0000	0.0000	0.0000	0.0000	0.0000	0.0000	0.0000	0.0160	50.51	50.51	50.51	50.51
1.104	0.0000	0.0000	0.0200	0.0000	-0.0000	0.0318	0.0001	-0.0001	-0.1067	0.0000	0.0000	0.0000	0.0000	0.0000	0.0000	0.0000	0.0000	0.0173	50.31	50.31	50.31	50.31
1.112	0.0000	0.0000	0.0200	0.0000	-0.0000	0.0295	0.0001	-0.0001	-0.1085	0.0000	0.0000	0.0000	0.0000	0.0000	0.0000	0.0000	0.0000	0.0187	50.14	50.14	50.14	50.14
1.120	0.0000	0.0000	0.0200	0.0000	-0.0000	0.0275	0.0001	-0.0001	-0.1101	0.0000	0.0000	0.0000	0.0000	0.0000	0.0000	0.0000	0.0000	0.0200	49.99	49.99	49.99	49.99
1.128	0.0000	0.0000	0.0200	0.0000	-0.0000	0.0257	0.0001	-0.0001	-0.1114	0.0000	0.0000	0.0000	0.0000	0.0000	0.0000	0.0000	0.0000	0.0213	49.86	49.86	49.86	49.86
1.136	0.0000	0.0000	0.0200	0.0000	-0.0000	0.0242	0.0001	-0.0001	-0.1124	0.0000	0.0000	0.0000	0.0000	0.0000	0.0000	0.0000	0.0000	0.0227	49.74	49.74	49.74	49.74
1.144	0.0000	0.0000	0.0200	0.0000	-0.0000	0.0228	0.0001	-0.0001	-0.1131	0.0000	0.0000	0.0000	0.0000	0.0000	0.0000	0.0000	0.0000	0.0240	49.65	49.65	49.65	49.65
1.152	0.0000	0.0000	0.0200	0.0000	-0.0000	0.0217	0.0001	-0.0001	-0.1137	0.0000	0.0000	0.0000	0.0000	0.0000	0.0000	0.0000	0.0000	0.0253	49.57	49.57	49.57	49.57
1.160	0.0000	0.0000	0.0200	0.0000	-0.0000	0.0207	0.0001	-0.0001	-0.1141	0.0000	0.0000	0.0000	0.0000	0.0000	0.0000	0.0000	0.0000	0.0267	49.49	49.50	49.50	49.50
1.168	0.0000	0.0000	0.0200	0.0000	-0.0000	0.0198	0.0001	-0.0001	-0.1144	0.0000	0.0000	0.0000	0.0000	0.0000	0.0000	0.0000	0.0000	0.0280	49.43	49.44	49.44	49.44
1.176	0.0000	0.0000	0.0200	0.0000	-0.0000	0.0190	0.0001	-0.0001	-0.1146	0.0000	0.0000	0.0000	0.0000	0.0000	0.0000	0.0000	0.0000	0.0293	49.38	49.38	49.38	49.38
1.184	0.0000	0.0000	0.0200	0.0000	-0.0000	0.0184	0.0001	-0.0001	-0.1146	0.0000	0.0000	0.0000	0.0000	0.0000	0.0000	0.0000	0.0000	0.0307	49.34	49.34	49.34	49.34
1.192	0.0000	0.0000	0.0200	0.0000	-0.0000	0.0178	0.0001	-0.0001	-0.1145	0.0000	0.0000	0.0000	0.0000	0.0000	0.0000	0.0000	0.0000	0.0320	49.31	49.31	49.31	49.31
1.200	0.0000	0.0000	0.0200	0.0000	-0.0000	0.0173	0.0001	-0.0001	-0.1144	0.0000	0.0000	0.0000	0.0000	0.0000	0.0000	0.0000	0.0000	0.0333	49.28	49.28	49.28	49.28
1.208	0.0000	0.0000	0.0200	0.0000	-0.0000	0.0168	0.0000	-0.0000	-0.1141	0.0000	0.0000	0.0000	0.0000	0.0000	0.0000	0.0000	0.0000	0.0347	49.25	49.25	49.25	49.25
1.216	0.0000	0.0000	0.0200	0.0000	-0.0000	0.0165	0.0000	-0.0000	-0.1138	-0.0000	-0.0000	0.0000	0.0000	0.0000	0.0000	0.0000	0.0000	0.0360	49.23	49.23	49.23	49.23
1.224	0.0000	0.0000	0.0200	0.0000	-0.0000	0.0161	0.0000	-0.0000	-0.1135	-0.0000	-0.0000	0.0000	0.0000	0.0000	0.0000	0.0000	0.0000	0.0373	49.22	49.22	49.22	49.22
1.232	0.0000	0.0000	0.0200	0.0000	-0.0000	0.0159	0.0000	-0.0000	-0.1131	-0.0000	-0.0000	0.0000	0.0000	0.0000	0.0000	0.0000	0.0000	0.0387	49.21	49.21	49.21	49.21
1.240	0.0000	0.0000	0.0200	0.0000	-0.0000	0.0156	0.0000	-0.0000	-0.1127	-0.0000	-0.0000	0.0000	0.0000	0.0000	0.0000	0.0000	0.0000	0.0400	49.20	49.20	49.20	49.20
1.248	0.0000	0.0000	0.0200	0.0000	-0.0000	0.0154	0.0000	-0.0000	-0.1122	-0.0000	-0.0000	0.0000	0.0000	0.0000	0.0000	0.0000	0.0000	0.0413	49.19	49.19	49.19	49.19
1.256	0.0000	0.0000	0.0200	0.0000	-0.0000	0.0153	0.0000	-0.0000	-0.1117	-0.0000	-0.0000	0.0000	0.0000	0.0000	0.0000	0.0000	0.0000	0.0427	49.19	49.19	49.19	49.19
1.264	0.0000	0.0000	0.0200	0.0000	-0.0000	0.0151	0.0000	-0.0000	-0.1112	-0.0000	-0.0000	0.0000	0.0000	0.0000	0.0000	0.0000	0.0000	0.0440	49.19	49.19	49.19	49.19
1.272	0.0000	0.0000	0.0200	0.0000	-0.0000	0.0150	0.0000	-0.0000	-0.1106	-0.0000	-0.0000	0.0000	0.0000	0.0000	0.0000	0.0000	0.0000	0.0453	49.19	49.19	49.19	49.19
1.280	0.0000	0.0000	0.0200	0.0000	-0.0000	0.0149	0.0000	-0.0000	-0.1100	-0.0000	-0.0000	0.0000	0.0000	0.0000	0.0000	0.0000	0.0000	0.0467	49.20	49.20	49.20	49.20
1.288	0.0000	0.0000	0.0200	0.0000	-0.0000	0.0148	0.0000	-0.0000	-0.1095	-0.0000	-0.0000	0.0000	0.0000	0.0000	0.0000	0.0000	0.0000	0.0480	49.20	49.20	49.20	49.20
1.296	0.0000	0.0000	0.0200	0.0000	-0.0000	0.0147	0.0000	-0.0000	-0.1088	-0.0000	-0.0000	0.0000	0.0000	0.0000	0.0000	0.0000	0.0000	0.0493	49.21	49.21	49.21	49.21
1.304	0.0000	0.0000	0.0200	0.0000	-0.0000	0.0147	0.0000	-0.0000	-0.1082	-0.0000	-0.0000	0.0000	0.0000	0.0000	0.0000	0.0000	0.0000	0.0507	49.21	49.21	49.21	49.21
1.312	0.0000	0.0000	0.0200	0.0000	-0.0000	0.0146	0.0000	-0.0000	-0.1076	-0.0000	-0.0000	0.0000	0.0000	0.0000	0.0000	0.0000	0.0000	0.0520	49.22	49.22	49.22	49.22
1.320	0.0000	0.0000	0.0200	0.0000	-0.0000	0.0146	0.0000	-0.0000	-0.1070	-0.0000	-0.0000	0.0000	0.0000	0.0000	0.0000	0.0000	0.0000	0.0533	49.23	49.23	49.23	49.23
1.328	0.0000	0.0000	0.0200	0.0000	-0.0000	0.0146	0.0000	-0.0000	-0.1063	-0.0000	-0.0000	0.0000	0.0000	0.0000	0.0000	0.0000	0.0000	0.0547	49.24	49.24	49.24	49.24
1.336	0.0000	0.0000	0.0200	0.0000	-0.0000	0.0146	0.0000	-0.0000	-0.1057	-0.0000	-0.0000	0.0000	0.0000	0.0000	0.0000	0.0000	0.0000	0.0560	49.25	49.25	49.25	49.25
1.344	0.0000	0.0000	0.0200	0.0000	-0.0000	0.0145	0.0000	-0.0000	-0.1050	-0.0000	-0.0000	0.0000	0.0000	0.0000	0.0000	0.0000	0.0000	0.0573	49.26	49.26	49.26	49.26
1.352	0.0000	0.0000	0.0200	0.0000	-0.0000	0.0145	0.0000	-0.0000	-0.1044	-0.0000	-0.0000	0.0000	0.0000	0.0000	0.0000	0.0000	0.0000	0.0587	49.27	49.27	49.27	49.27
1.360	0.0000	0.0000	0.0200	0.0000	-0.0000	0.0145	0.0000	-0.0000	-0.1037	-0.0000	-0.0000	0.0000	0.0000	0.0000	0.0000	0.0000	0.0000	0.0600	49.28	49.28	49.28	49.28
1.368	0.0000	0.0000	0.0200	0.0000	-0.0000	0.0145	0.0000	-0.0000	-0.1031	-0.0000	-0.0000	0.0000	0.0000	0.0000	0.0000	0.0000	0.0000	0.0613	49.30	49.30	49.30	49.30
1.376	0.0000	0.0000	0.0200	0.0000	-0.0000	0.0146	0.0000	-0.0000	-0.1024	-0.0000	-0.0000	0.0000	0.0000	0.0000	0.0000	0.0000	0.0000	0.0627	49.31	49.31	49.31	49.31
1.384	0.0000	0.0000	0.0200	0.0000	-0.0000	0.0146	0.0000	-0.0000	-0.1018	-0.0000	-0.0000	0.0000	0.0000	0.0000	0.0000	0.0000	0.0000	0.0640	49.32	49.32	49.32	49.32
1.392	0.0000	0.0000	0.0200	0.0000	-0.0000	0.0146	0.0000	-0.0000	-0.1011	-0.0000	-0.0000	0.0000	0.0000	0.0000	0.0000	0.0000	0.0000	0.0653	49.34	49.34	49.34	49.34
1.400	0.0000	0.0000	0.0200	0.0000	-0.0000	0.0146	0.0000	-0.0000	-0.1004	-0.0000	-0.0000	0.0000	0.0000	0.0000	0.0000	0.0000	0.0000	0.0667	49.35	49.35	49.35	49.35
1.408	0.0000	0.0000	0.0200	0.0000	-0.0000	0.0146	0.0000	-0.0000	-0.0998	-0.0000	-0.0000	0.0000	0.0000	0.0000	0.0000	0.0000	0.0000	0.0680	49.36	49.36	49.36	49.36
1.416	0.0000	0.0000	0.0200	0.0000	-0.0000	0.0146	0.0000	-0.0000	-0.0991	-0.0000	-0.0000	0.0000	0.0000	0.0000	0.0000	0.0000	0.0000	0.0693	49.38	49.38	49.38	49.38
1.424	0.0000	0.0000	0.0200	0.0000	-0.0000	0.0147	0.0000	-0.0000	-0.0985	-0.0000	-0.0000	0.0000	0.0000	0.0000	0.0000	0.0000	0.0000	0.0707	49.39	49.39	49.39	49.39
1.432	0.0000	0.0000	0.0200	0.0000	-0.0000	0.0147	0.0000	-0.0000	-0.0978	-0.0000	-0.0000	0.0000	0.0000	0.0000	0.0000	0.0000	0.0000	0.0720	49.41	49.41	49.41	49.41
1.440	0.0000	0.0000	0.0200	0.0000	-0.0000	0.0147	0.0000	-0.0000	-0.0972	-0.0000	-0.0000	0.0000	0.0000	0.0000	0.0000	0.0000	0.0000	0.0733	49.42	49.42	49.42	49.42
1.448	0.0000	0.0000	0.0200	0.0000	-0.0000	0.0147	0.0000	-0.0000	-0.0965	-0.0000	-0.0000	0.0000	0.0000	0.0000	0.0000	0.0000	0.0000	0.0747	49.44	49.44	49.44	49.44
1.456	0.0000	0.0000	0.0200	0.0000	-0.0000	0.0148	0.0000	-0.0000	-0.0959	-0.0000	-0.0000	0.0000	0.0000	0.0000	0.0000	0.0000	0.0000	0.0760	49.45	49.45	49.45	49.45
1.464	0.0000	0.0000	0.0200	0.0000	-0.0000	0.0148	0.0000	-0.0000	-0.0952	-0.0000	-0.0000	0.0000	0.0000	0.0000	0.0000	0.0000	0.0000	0.0773	49.47	49.47	49.47	49.47
1.472	0.0000	0.0000	0.0200	0.0000	-0.0000	0.0148	0.0000	-0.0000	-0.0946	-0.0000	-0.0000	0.0000	0.0000	0.0000	0.0000	0.0000	0.0000	0.0787	49.48	49.48	49.48	49.48
1.480	0.0000	0.0000	0.0200	0.0000	-0.0000	0.0149	0.0000	-0.0000	-0.0940	-0.0000	-0.0000	0.0000	0.0000	0.0000	0.0000	0.0000	0.0000	0.0800	49.50	49.50	49.50	49.50
1.488	0.0000	0.0000	0.0200	0.0000	-0.0000	0.0149	0.0000	-0.0000	-0.0933	-0.0000	-0.0000	0.0000	0.0000	0.0000	0.0000	0.0000	0.0000	0.0813	49.51	49.51	49.51	49.51
1.496	0.0000	0.0000	0.0200	0.0000	-0.0000	0.0149	0.0000	-0.0000	-0.0927	-0.0000	-0.0000	0.0000	0.0000	0.0000	0.0000	0.0000	0.0000	0.0827	49.53	49.53	49.53	49.53
1.504	0.0000	0.0000	0.0200	0.0000	-0.0000	0.0150	0.0000	-0.0000	-0.0921	-0.0000	-0.0000	0.0000	0.0000	0.0000	0.0000	0.0000	0.0000	0.0840	49.54	49.54	49.54	49.54
1.512	0.0000	0.0000	0.0200	0.0000	-0.0000	0.0150	0.0000	-0.0000	-0.0914	-0.0000	-0.0000	0.0000	0.0000	0.0000	0.0000	0.0000	0.0000	0.0853	49.56	49.56	49.56	49.56
1.520	0.0000	0.0000	0.0200	0.0000	-0.0000	0.0150	0.0000	-0.0000	-0.0908	-0.0000	-0.0000	0.0000	0.0000	0.0000	0.0000	0.0000	0.0000	0.0867	49.57	49.57	49.57	49.57
1.528	0.0000	0.0000	0.0200	0.0000	-0.0000	0.0150	0.0000	-0.0000	-0.0902	-0.0000	-0.0000	0.0000	0.0000	0.0000	0.0000	0.0000	0.0000	0.0880	49.59	49.59	49.59	49.59
1.536	0.0000	0.0000	0.0200	0.0000	-0.0000	0.0151	0.0000	-0.0000	-0.0896	-0.0000	-0.0000	0.0000	0.0000	0.0000	0.0000	0.0000	0.0000	0.0893	49.61	49.61	49.61	49.61
1.544	0.0000	0.0000	0.0200	0.0000	-0.0000	0.0151	0.0000	-0.0000	-0.0889	-0.0000	-0.0000	0.0000	0.0000	0.0000	0.0000	0.0000	0.0000	0.0907	49.62	49.62	49.62	49.62
1.552	0.0000	0.0000	0.0200	0.0000	-0.0000	0.0151	0.0000	-0.0000	-0.0883	-0.0000	-0.0000	0.0000	0.0000	0.0000	0.0000	0.0000	0.0000	0.0920	49.64	49.64	49.64	49.64
1.560	0.0000	0.0000	0.0200	0.0000	-0.0000	0.0152	0.0000	-0.0000	-0.0877	-0.0000	-0.0000	0.0000	0.0000	0.0000	0.0000	0.0000	0.0000	0.0933	49.65	49.65	49.65	49.65
1.568	0.0000	0.0000	0.0200	0.0000	-0.0000	0.0152	0.0000	-0.0000	-0.0871	-0.0000	-0.0000	0.0000	0.0000	0.0000	0.0000	0.0000	0.0000	0.0947	49.67	49.67	49.67	49.67
1.576	0.0000	0.0000	0.0200	0.0000	-0.0000	0.0152	0.0000	-0.0000	-0.0865	-0.0000	-0.0000	0.0000	0.0000	0.0000	0.0000	0.0000	0.0000	0.0960	49.69	49.69	49.69	49.69
1.584	0.0000	0.0000	0.0200	0.0000	-0.0000	0.0153	0.0000	-0.0000	-0.0859	-0.0000	-0.0000	0.0000	0.0000	0.0000	0.0000	0.0000	0.0000	0.0973	49.70	49.70	49.70	49.70
1.592	0.0000	0.0000	0.0200	0.0000	-0.0000	0.0153	0.0000	-0.0000	-0.0853	-0.0000	-0.0000	0.0000	0.0000	0.0000	0.0000	0.0000	0.0000	0.0987	49.72	49.72	49.72	49.72
1.600	0.0000	0.0000	0.0200	0.0000	-0.0000	0.0153	0.0000	-0.0000	-0.0847	-0.0000	-0.0000	0.0000	0.0000	0.0000	0.0000	0.0000	0.0000	0.1000	49.74	49.74	49.74	49.74
1.608	0.0000	0.0000	0.0200	0.0000	-0.0000	0.0154	0.0000	-0.0000	-0.0841	-0.0000	-0.0000	0.0000	0.0000	0.0000	0.0000	0.0000	0.0000	0.1013	49.75	49.75	49.75	49.75
1.616	0.0000	0.0000	0.0200	0.0000	-0.0000	0.0154	0.0000	-0.0000	-0.0835	-0.0000	-0.0000	0.0000	0.0000	0.0000	0.0000	0.0000	0.0000	0.1027	49.77	49.77	49.77	49.77
1.624	0.0000	0.0000	0.0200	0.0000	-0.0000	0.0154	0.0000	-0.0000	-0.0830	-0.0000	-0.0000	0.0000	0.0000	0.0000	0.0000	0.0000	0.0000	0.1040	49.79	49.79	49.79	49.79
1.632	0.0000	0.0000	0.0200	0.0000	-0.0000	0.0155	0.0000	-0.0000	-0.0824	-0.0000	-0.0000	0.0000	0.0000	0.0000	0.0000	0.0000	0.0000	0.1053	49.80	49.80	49.80	49.80
1.640	0.0000	0.0000	0.0200	0.0000	-0.0000	0.0155	0.0000	-0.0000	-0.0818	-0.0000	-0.0000	0.0000	0.0000	0.0000	0.0000	0.0000	0.0000	0.1067	49.82	49.82	49.82	49.82
1.648	0.0000	0.0000	0.0200	0.0000	-0.0000	0.0155	0.0000	-0.0000	-0.0812	-0.0000	-0.0000	0.0000	0.0000	0.0000	0.0000	0.0000	0.0000	0.1080	49.84	49.84	49.84	49.84
1.656	0.0000	0.0000	0.0200	0.0000	-0.0000	0.0156	0.0000	-0.0000	-0.0807	-0.0000	-0.0000	0.0000	0.0000	0.0000	0.0000	0.0000	0.0000	0.1093	49.85	49.85	49.85	49.85
1.664	0.0000	0.0000	0.0200	0.0000	-0.0000	0.0156	0.0000	-0.0000	-0.0801	-0.0000	-0.0000	0.0000	0.0000	0.0000	0.0000	0.0000	0.0000	0.1107	49.87	49.87	49.87	49.87
1.672	0.0000	0.0000	0.0200	0.0000	-0.0000	0.0156	0.0000	-0.0000	-0.0795	-0.0000	-0.0000	0.0000	0.0000	0.0000	0.0000	0.0000	0.0000	0.1120	49.89	49.89	49.89	49.89
1.680	0.0000	0.0000	0.0200	0.0000	-0.0000	0.0156	0.0000	-0.0000	-0.0790	-0.0000	-0.0000	0.0000	0.0000	0.0000	0.0000	0.0000	0.0000	0.1133	49.90	49.90	49.90	49.90
1.688	0.0000	0.0000	0.0200	0.0000	-0.0000	0.0157	0.0000	-0.0000	-0.0784	-0.0000	-0.0000	0.0000	0.0000	0.0000	0.0000	0.0000	0.0000	0.1147	49.92	49.92	49.92	49.92
1.696	0.0000	0.0000	0.0200	0.0000	-0.0000	0.0157	0.0000	-0.0000	-0.0778	-0.0000	-0.0000	0.0000	0.0000	0.0000	0.0000	0.0000	0.0000	0.1160	49.94	49.94	49.94	49.94
1.704	0.0000	0.0000	0.0200	0.0000	-0.0000	0.0157	0.0000	-0.0000	-0.0773	-0.0000	-0.0000	0.0000	0.0000	0.0000	0.0000	0.0000	0.0000	0.1173	49.95	49.95	49.95	49.95
1.712	0.0000	0.0000	0.0200	0.0000	-0.0000	0.0158	0.0000	-0.0000	-0.0767	-0.0000	-0.0000	0.0000	0.0000	0.0000	0.0000	0.0000	0.0000	0.1187	49.97	49.97	49.97	49.97
1.720	0.0000	0.0000	0.0200	0.0000	-0.0000	0.0158	0.0000	-0.0000	-0.0762	-0.0000	-0.0000	0.0000	0.0000	0.0000	0.0000	0.0000	0.0000	0.1200	49.99	49.99	49.99	49.99
1.728	0.0000	0.0000	0.0200	0.0000	-0.0000	0.0158	-0.0000	0.0000	-0.0756	-0.0000	-0.0000	-0.0000	0.0000	0.0000	0.0000	0.0000	0.0000	0.1213	50.01	50.01	50.01	50.01
1.736	0.0000	0.0000	0.0200	0.0000	-0.0000	0.0159	-0.0000	0.0000	-0.0751	-0.0000	-0.0000	-0.0000	0.0000	0.0000	0.0000	0.0000	0.0000	0.1227	50.02	50.02	50.02	50.02
1.744	0.0000	0.0000	0.0200	-0.0000	0.0000	0.0159	-0.0000	0.0000	-0.0746	-0.0000	-0.0000	-0.0000	0.0000	0.0000	0.0000	0.0000	0.0000	0.1240	50.04	50.04	50.04	50.04
1.752	0.0000	0.0000	0.0200	-0.0000	0.0000	0.0159	-0.0000	0.0000	-0.0740	-0.0000	-0.0000	-0.0000	0.0000	0.0000	0.0000	0.0000	0.0000	0.1253	50.06	50.06	50.06	50.06
1.760	0.0000	0.0000	0.0200	-0.0000	0.0000	0.0159	-0.0000	0.0000	-0.0735	-0.0000	-0.0000	-0.0000	0.0000	0.0000	0.0000	0.0000	0.0000	0.1267	50.08	50.08	50.08	50.08
1.768	0.0000	0.0000	0.0200	-0.0000	0.0000	0.0160	-0.0000	0.0000	-0.0730	-0.0000	-0.0000	-0.0000	0.0000	0.0000	0.0000	0.0000	0.0000	0.1280	50.09	50.09	50.09	50.09
1.776	0.0000	0.0000	0.0200	-0.0000	0.0000	0.0160	-0.0000	0.0000	-0.0724	-0.0000	-0.0000	-0.0000	0.0000	0.0000	0.0000	0.0000	0.0000	0.1293	50.11	50.11	50.11	50.11
1.784	0.0000	0.0000	0.0200	-0.0000	0.0000	0.0160	-0.0000	0.0000	-0.0719	-0.0000	-0.0000	-0.0000	0.0000	0.0000	0.0000	0.0000	0.0000	0.1307	50.13	50.13	50.13	50.13
1.792	0.0000	0.0000	0.0200	-0.0000	0.0000	0.0161	-0.0000	0.0000	-0.0714	-0.0000	-0.0000	-0.0000	0.0000	0.0000	0.0000	0.0000	0.0000	0.1320	50.15	50.15	50.15	50.15
1.800	0.0000	0.0000	0.0200	-0.0000	0.0000	0.0161	-0.0000	0.0000	-0.0709	-0.0000	-0.0000	-0.0000	0.0000	0.0000	0.0000	0.0000	0.0000	0.1333	50.17	50.17	50.17	50.17
1.808	0.0000	0.0000	0.0200	-0.0000	0.0000	0.0161	-0.0000	0.0000	-0.0704	-0.0000	-0.0000	-0.0000	0.0000	0.0000	0.0000	0.0000	0.0000	0.1347	50.18	50.18	50.18	50.18
1.816	0.0000	0.0000	0.0200	-0.0000	0.0000	0.0161	-0.0000	0.0000	-0.0698	-0.0000	-0.0000	-0.0000	0.0000	0.0000	0.0000	0.0000	0.0000	0.1360	50.20	50.20	50.20	50.20
1.824	0.0000	0.0000	0.0200	-0.0000	0.0000	0.0162	-0.0000	0.0000	-0.0693	-0.0000	-0.0000	-0.0000	0.0000	0.0000	0.0000	0.0000	0.0000	0.1373	50.22	50.22	50.22	50.22
1.832	0.0000	0.0000	0.0200	-0.0000	0.0000	0.0162	-0.0000	0.0000	-0.0688	-0.0000	-0.0000	-0.0000	0.0000	0.0000	0.0000	0.0000	0.0000	0.1387	50.24	50.24	50.24	50.24
1.840	0.0000	0.0000	0.0200	-0.0000	0.0000	0.0162	-0.0000	0.0000	-0.0683	-0.0000	-0.0000	-0.0000	0.0000	0.0000	0.0000	0.0000	0.0000	0.1400	50.26	50.26	50.26	50.26
1.848	0.0000	0.0000	0.0200	-0.0000	0.0000	0.0163	-0.0000	0.0000	-0.0678	-0.0000	-0.0000	-0.0000	0.0000	0.0000	0.0000	0.0000	0.0000	0.1413	50.27	50.27	50.27	50.27
1.856	0.0000	0.0000	0.0200	-0.0000	0.0000	0.0163	-0.0000	0.0000	-0.0673	-0.0000	-0.0000	-0.0000	0.0000	0.0000	0.0000	0.0000	0.0000	0.1427	50.29	50.29	50.29	50.29
1.864	0.0000	0.0000	0.0200	-0.0000	0.0000	0.0163	-0.0000	0.0000	-0.0668	-0.0000	-0.0000	-0.0000	0.0000	0.0000	0.0000	0.0000	0.0000	0.1440	50.31	50.31	50.31	50.31
1.872	0.0000	0.0000	0.0200	-0.0000	0.0000	0.0163	-0.0000	0.0000	-0.0663	-0.0000	-0.0000	-0.0000	0.0000	0.0000	0.0000	0.0000	0.0000	0.1453	50.33	50.33	50.33	50.33
1.880	0.0000	0.0000	0.0200	-0.0000	0.0000	0.0164	-0.0000	0.0000	-0.0658	-0.0000	-0.0000	-0.0000	0.0000	0.0000	0.0000	0.0000	0.0000	0.1467	50.35	50.35	50.35	50.35
1.888	0.0000	0.0000	0.0200	-0.0000	0.0000	0.0164	-0.0000	0.0000	-0.0654	-0.0000	-0.0000	-0.0000	0.0000	0.0000	0.0000	0.0000	0.0000	0.1480	50.36	50.36	50.36	50.36
1.896	0.0000	0.0000	0.0200	-0.0000	0.0000	0.0164	-0.0000	0.0000	-0.0649	-0.0000	-0.0000	-0.0000	0.0000	0.0000	0.0000	0.0000	0.0000	0.1493	50.38	50.38	50.38	50.38
1.904	0.0000	0.0000	0.0200	-0.0000	0.0000	0.0164	-0.0000	0.0000	-0.0644	-0.0000	-0.0000	-0.0000	0.0000	0.0000	0.0000	0.0000	0.0000	0.1507	50.40	50.40	50.40	50.40
1.912	0.0000	0.0000	0.0200	-0.0000	0.0000	0.0165	-0.0000	0.0000	-0.0639	-0.0000	-0.0000	-0.0000	0.0000	0.0000	0.0000	0.0000	0.0000	0.1520	50.42	50.42	50.42	50.42
1.920	0.0000	0.0000	0.0200	-0.0000	0.0000	0.0165	-0.0000	0.0000	-0.0634	-0.0000	-0.0000	-0.0000	0.0000	0.0000	0.0000	0.0000	0.0000	0.1533	50.44	50.44	50.44	50.44
1.928	0.0000	0.0000	0.0200	-0.0000	0.0000	0.0165	-0.0000	0.0000	-0.0630	-0.0000	-0.0000	-0.0000	0.0000	0.0000	0.0000	0.0000	0.0000	0.1547	50.46	50.46	50.46	50.46
1.936	0.0000	0.0000	0.0200	-0.0000	0.0000	0.0165	-0.0000	0.0000	-0.0625	-0.0000	-0.0000	-0.0000	0.0000	0.0000	0.0000	0.0000	0.0000	0.1560	50.48	50.48	50.48	50.48
1.944	0.0000	0.0000	0.0200	-0.0000	0.0000	0.0166	-0.0000	0.0000	-0.0620	-0.0000	-0.0000	-0.0000	0.0000	0.0000	0.0000	0.0000	0.0000	0.1573	50.50	50.50	50.50	50.50
1.952	0.0000	0.0000	0.0200	-0.0000	0.0000	0.0166	-0.0000	0.0000	-0.0615	-0.0000	-0.0000	-0.0000	0.0000	0.0000	0.0000	0.0000	0.0000	0.1587	50.51	50.51	50.51	50.51
1.960	0.0000	0.0000	0.0200	-0.0000	0.0000	0.0166	-0.0000	0.0000	-0.0611	-0.0000	-0.0000	-0.0000	0.0000	0.0000	0.0000	0.0000	0.0000	0.1600	50.53	50.53	50.53	50.53
1.968	0.0000	0.0000	0.0200	-0.0000	0.0000	0.0166	-0.0000	0.0000	-0.0606	-0.0000	-0.0000	-0.0000	0.0000	0.0000	0.0000	0.0000	0.0000	0.1613	50.55	50.55	50.55	50.55
1.976	0.0000	0.0000	0.0200	-0.0000	0.0000	0.0167	-0.0000	0.0000	-0.0602	-0.0000	-0.0000	-0.0000	0.0000	0.0000	0.0000	0.0000	0.0000	0.1627	50.57	50.57	50.57	50.57
1.984	0.0000	0.0000	0.0200	-0.0000	0.0000	0.0167	-0.0000	0.0000	-0.0597	-0.0000	-0.0000	-0.0000	0.0000	0.0000	0.0000	0.0000	0.0000	0.1640	50.59	50.59	50.59	50.59
1.992	0.0000	0.0000	0.0200	-0.0000	0.0000	0.0167	-0.0000	0.0000	-0.0593	-0.0000	-0.0000	-0.0000	0.0000	0.0000	0.0000	0.0000	0.0000	0.1653	50.61	50.61	50.61	50.61
2.000	0.0000	0.0000	0.0200	-0.0000	0.0000	0.0167	-0.0000	0.0000	-0.0588	-0.0000	-0.0000	-0.0000	0.0000	0.0000	0.0000	0.0000	0.0000	0.1667	50.63	50.63	50.63	50.63
2.008	0.0000	0.0000	0.0200	-0.0000	0.0000	0.0168	-0.0000	0.0000	-0.0584	-0.0000	-0.0000	-0.0000	0.0000	0.0000	0.0000	0.0000	0.0000	0.1680	50.65	50.65	50.65	50.65
2.016	0.0000	0.0000	0.0200	-0.0000	0.0000	0.0168	-0.0000	0.0000	-0.0579	-0.0000	-0.0000	-0.0000	0.0000	0.0000	0.0000	0.0000	0.0000	0.1693	50.67	50.67	50.67	50.67
2.024	0.0000	0.0000	0.0200	-0.0000	0.0000	0.0168	-0.0000	0.0000	-0.0575	-0.0000	-0.0000	-0.0000	0.0000	0.0000	0.0000	0.0000	0.0000	0.1707	50.69	50.69	50.69	50.69
2.032	0.0000	0.0000	0.0200	-0.0000	0.0000	0.0168	-0.0000	0.0000	-0.0570	-0.0000	-0.0000	-0.0000	0.0000	0.0000	0.0000	0.0000	0.0000	0.1720	50.71	50.71	50.71	50.71
2.040	0.0000	0.0000	0.0200	-0.0000	0.0000	0.0169	-0.0000	0.0000	-0.0566	-0.0000	-0.0000	-0.0000	0.0000	0.0000	0.0000	0.0000	0.0000	0.1733	50.73	50.73	50.73	50.73
2.048	0.0000	0.0000	0.0200	-0.0000	0.0000	0.0169	-0.0000	0.0000	-0.0562	-0.0000	-0.0000	-0.0000	0.0000	0.0000	0.0000	0.0000	0.0000	0.1747	50.74	50.74	50.74	50.74
2.056	0.0000	0.0000	0.0200	-0.0000	0.0000	0.0169	-0.0000	0.0000	-0.0557	-0.0000	-0.0000	-0.0000	0.0000	0.0000	0.0000	0.0000	0.0000	0.1760	50.76	50.76	50.76	50.76
2.064	0.0000	0.0000	0.0200	-0.0000	0.0000	0.0169	-0.0000	0.0000	-0.0553	-0.0000	-0.0000	-0.0000	0.0000	0.0000	0.0000	0.0000	0.0000	0.1773	50.78	50.78	50.78	50.78
2.072	0.0000	0.0000	0.0200	-0.0000	0.0000	0.0170	-0.0000	0.0000	-0.0549	-0.0000	-0.0000	-0.0000	0.0000	0.0000	0.0000	0.0000	0.0000	0.1787	50.80	50.80	50.80	50.80
2.080	0.0000	0.0000	0.0200	-0.0000	0.0000	0.0170	-0.0000	0.0000	-0.0544	-0.0000	-0.0000	-0.0000	0.0000	0.0000	0.0000	0.0000	0.0000	0.1800	50.82	50.82	50.82	50.82
2.088	0.0000	0.0000	0.0200	-0.0000	0.0000	0.0170	-0.0000	0.0000	-0.0540	-0.0000	-0.0000	-0.0000	0.0000	0.0000	0.0000	0.0000	0.0000	0.1813	50.84	50.84	50.84	50.84
2.096	0.0000	0.0000	0.0200	-0.0000	0.0000	0.0170	-0.0000	0.0000	-0.0536	-0.0000	-0.0000	-0.0000	0.0000	0.0000	0.0000	0.0000	0.0000	0.1827	50.86	50.86	50.86	50.86
2.104	0.0000	0.0000	0.0200	-0.0000	0.0000	0.0171	-0.0000	0.0000	-0.0532	-0.0000	-0.0000	-0.0000	0.0000	0.0000	0.0000	0.0000	0.0000	0.1840	50.88	50.88	50.88	50.88
2.112	0.0000	0.0000	0.0200	-0.0000	0.0000	0.0171	-0.0000	0.0000	-0.0528	-0.0000	-0.0000	-0.0000	0.0000	0.0000	0.0000	0.0000	0.0000	0.1853	50.90	50.90	50.90	50.90
2.120	0.0000	0.0000	0.0200	-0.0000	0.0000	0.0171	-0.0000	0.0000	-0.0524	-0.0000	-0.0000	-0.0000	0.0000	0.0000	0.0000	0.0000	0.0000	0.1867	50.92	50.92	50.92	50.92
2.128	0.0000	0.0000	0.0200	-0.0000	0.0000	0.0171	-0.0000	0.0000	-0.0519	-0.0000	-0.0000	-0.0000	0.0000	0.0000	0.0000	0.0000	0.0000	0.1880	50.94	50.94	50.94	50.94
2.136	0.0000	0.0000	0.0200	-0.0000	0.0000	0.0171	-0.0000	0.0000	-0.0515	-0.0000	-0.0000	-0.0000	0.0000	0.0000	0.0000	0.0000	0.0000	0.1893	50.96	50.96	50.96	50.96
2.144	0.0000	0.0000	0.0200	-0.0000	0.0000	0.0172	-0.0000	0.0000	-0.0511	-0.0000	-0.0000	-0.0000	0.0000	0.0000	0.0000	0.0000	0.0000	0.1907	50.98	50.98	50.98	50.98
2.152	0.0000	0.0000	0.0200	-0.0000	0.0000	0.0172	-0.0000	0.0000	-0.0507	-0.0000	-0.0000	-0.0000	0.0000	0.0000	0.0000	0.0000	0.0000	0.1920	51.00	51.00	51.00	51.00
2.160	0.0000	0.0000	0.0200	-0.0000	0.0000	0.0172	-0.0000	0.0000	-0.0503	-0.0000	-0.0000	-0.0000	0.0000	0.0000	0.0000	0.0000	0.0000	0.1933	51.02	51.02	51.02	51.02
2.168	0.0000	0.0000	0.0200	-0.0000	0.0000	0.0172	-0.0000	0.0000	-0.0499	-0.0000	-0.0000	-0.0000	0.0000	0.0000	0.0000	0.0000	0.0000	0.1947	51.04	51.04	51.04	51.04
2.176	0.0000	0.0000	0.0200	-0.0000	0.0000	0.0173	-0.0000	0.0000	-0.0495	-0.0000	-0.0000	-0.0000	0.0000	0.0000	0.0000	0.0000	0.0000	0.1960	51.06	51.06	51.06	51.06
2.184	0.0000	0.0000	0.0200	-0.0000	0.0000	0.0173	-0.0000	0.0000	-0.0491	-0.0000	-0.0000	-0.0000	0.0000	0.0000	0.0000	0.0000	0.0000	0.1973	51.08	51.08	51.08	51.08
2.192	0.0000	0.0000	0.0200	-0.0000	0.0000	0.0173	-0.0000	0.0000	-0.0487	-0.0000	-0.0000	-0.0000	0.0000	0.0000	0.0000	0.0000	0.0000	0.1987	51.10	51.10	51.10	51.10
2.200	0.0000	0.0000	0.0200	-0.0000	0.0000	0.0173	-0.0000	0.0000	-0.0484	-0.0000	-0.0000	-0.0000	0.0000	0.0000	0.0000	0.0000	0.0000	0.2000	51.12	51.13	51.13	51.13
2.208	0.0000	0.0000	0.0200	-0.0000	0.0000	0.0173	-0.0000	0.0000	-0.0480	-0.0000	-0.0000	-0.0000	0.0000	0.0000	0.0000	0.0000	0.0000	0.2013	51.15	51.15	51.15	51.15
2.216	0.0000	0.0000	0.0200	-0.0000	0.0000	0.0174	-0.0000	0.0000	-0.0476	-0.0000	-0.0000	-0.0000	0.0000	0.0000	0.0000	0.0000	0.0000	0.2027	51.17	51.17	51.17	51.17
2.224	0.0000	0.0000	0.0200	-0.0000	0.0000	0.0174	-0.0000	0.0000	-0.0472	-0.0000	-0.0000	-0.0000	0.0000	0.0000	0.0000	0.0000	0.0000	0.2040	51.19	51.19	51.19	51.19
2.232	0.0000	0.0000	0.0200	-0.0000	0.0000	0.0174	-0.0000	0.0000	-0.0468	-0.0000	-0.0000	-0.0000	0.0000	0.0000	0.0000	0.0000	0.0000	0.2053	51.21	51.21	51.21	51.21
2.240	0.0000	0.0000	0.0200	-0.0000	0.0000	0.0174	-0.0000	0.0000	-0.0464	-0.0000	-0.0000	-0.0000	0.0000	0.0000	0.0000	0.0000	0.0000	0.2067	51.23	51.23	51.23	51.23
2.248	0.0000	0.0000	0.0200	-0.0000	0.0000	0.0174	-0.0000	0.0000	-0.0461	-0.0000	-0.0000	-0.0000	0.0000	0.0000	0.0000	0.0000	0.0000	0.2080	51.25	51.25	51.25	51.25
2.256	0.0000	0.0000	0.0200	-0.0000	0.0000	0.0175	-0.0000	0.0000	-0.0457	-0.0000	-0.0000	-0.0000	0.0000	0.0000	0.0000	0.0000	0.0000	0.2093	51.27	51.27	51.27	51.27
2.264	0.0000	0.0000	0.0200	-0.0000	0.0000	0.0175	-0.0000	0.0000	-0.0453	-0.0000	-0.0000	-0.0000	0.0000	0.0000	0.0000	0.0000	0.0000	0.2107	51.29	51.29	51.29	51.29
2.272	0.0000	0.0000	0.0200	-0.0000	0.0000	0.0175	-0.0000	0.0000	-0.0450	-0.0000	-0.0000	-0.0000	0.0000	0.0000	0.0000	0.0000	0.0000	0.2120	51.31	51.31	51.31	51.31
2.280	0.0000	0.0000	0.0200	-0.0000	0.0000	0.0175	-0.0000	0.0000	-0.0446	-0.0000	-0.0000	-0.0000	0.0000	0.0000	0.0000	0.0000	0.0000	0.2133	51.33	51.33	51.33	51.33
2.288	0.0000	0.0000	0.0200	-0.0000	0.0000	0.0175	-0.0000	0.0000	-0.0442	-0.0000	-0.0000	-0.0000	0.0000	0.0000	0.0000	0.0000	0.0000	0.2147	51.35	51.35	51.35	51.35
2.296	0.0000	0.0000	0.0200	-0.0000	0.0000	0.0176	-0.0000	0.0000	-0.0439	-0.0000	-0.0000	-0.0000	0.0000	0.0000	0.0000	0.0000	0.0000	0.2160	51.38	51.38	51.38	51.38
2.304	0.0000	0.0000	0.0200	-0.0000	0.0000	0.0176	-0.0000	0.0000	-0.0435	-0.0000	-0.0000	-0.0000	0.0000	0.0000	0.0000	0.0000	0.0000	0.2173	51.40	51.40	51.40	51.40
2.312	0.0000	0.0000	0.0200	-0.0000	0.0000	0.0176	-0.0000	0.0000	-0.0431	-0.0000	-0.0000	-0.0000	0.0000	0.0000	0.0000	0.0000	0.0000	0.2187	51.42	51.42	51.42	51.42
2.320	0.0000	0.0000	0.0200	-0.0000	0.0000	0.0176	-0.0000	0.0000	-0.0428	-0.0000	-0.0000	-0.0000	0.0000	0.0000	0.0000	0.0000	0.0000	0.2200	51.44	51.44	51.44	51.44
2.328	0.0000	0.0000	0.0200	-0.0000	0.0000	0.0176	-0.0000	0.0000	-0.0424	-0.0000	-0.0000	-0.0000	0.0000	0.0000	0.0000	0.0000	0.0000	0.2213	51.46	51.46	51.46	51.46
2.336	0.0000	0.0000	0.0200	-0.0000	0.0000	0.0177	-0.0000	0.0000	-0.0421	-0.0000	-0.0000	-0.0000	0.0000	0.0000	0.0000	0.0000	0.0000	0.2227	51.48	51.48	51.48	51.48
2.344	0.0000	0.0000	0.0200	-0.0000	0.0000	0.0177	-0.0000	0.0000	-0.0417	-0.0000	-0.0000	-0.0000	0.0000	0.0000	0.0000	0.0000	0.0000	0.2240	51.50	51.50	51.50	51.50
2.352	0.0000	0.0000	0.0200	-0.0000	0.0000	0.0177	-0.0000	0.0000	-0.0414	-0.0000	-0.0000	-0.0000	0.0000	0.0000	0.0000	0.0000	0.0000	0.2253	51.52	51.52	51.52	51.52
2.360	0.0000	0.0000	0.0200	-0.0000	0.0000	0.0177	-0.0000	0.0000	-0.0410	-0.0000	-0.0000	-0.0000	0.0000	0.0000	0.0000	0.0000	0.0000	0.2267	51.55	51.55	51.55	51.55
2.368	0.0000	0.0000	0.0200	-0.0000	0.0000	0.0177	-0.0000	0.0000	-0.0407	-0.0000	-0.0000	-0.0000	0.0000	0.0000	0.0000	0.0000	0.0000	0.2280	51.57	51.57	51.57	51.57
2.376	0.0000	0.0000	0.0200	-0.0000	0.0000	0.0178	-0.0000	0.0000	-0.0403	-0.0000	-0.0000	-0.0000	0.0000	0.0000	0.0000	0.0000	0.0000	0.2293	51.59	51.59	51.59	51.59
2.384	0.0000	0.0000	0.0201	-0.0000	0.0000	0.0178	-0.0000	0.0000	-0.0400	-0.0000	-0.0000	-0.0000	0.0000	0.0000	0.0000	0.0000	0.0000	0.2307	51.61	51.61	51.61	51.61
2.392	0.0000	0.0000	0.0201	-0.0000	0.0000	0.0178	-0.0000	0.0000	-0.0396	-0.0000	-0.0000	-0.0000	0.0000	0.0000	0.0000	0.0000	0.0000	0.2320	51.62	51.62	51.62	51.62
2.400	0.0000	0.0000	0.0202	-0.0000	0.0000	0.0179	-0.0000	0.0000	-0.0393	-0.0000	-0.0000	-0.0000	0.0000	0.0000	0.0000	0.0000	0.0000	0.2333	51.64	51.64	51.64	51.64
2.408	0.0000	0.0000	0.0203	-0.0000	0.0000	0.0179	-0.0000	0.0000	-0.0389	-0.0000	-0.0000	-0.0000	0.0000	0.0000	0.0000	0.0000	0.0000	0.2347	51.65	51.65	51.65	51.65
2.416	0.0000	0.0000	0.0205	-0.0000	0.0000	0.0180	-0.0000	0.0000	-0.0385	-0.0000	-0.0000	-0.0000	0.0000	0.0000	0.0000	0.0000	0.0000	0.2360	51.66	51.66	51.66	51.66
2.424	0.0000	0.0000	0.0208	-0.0000	0.0000	0.0181	-0.0000	0.0000	-0.0381	-0.0000	-0.0000	-0.0000	0.0000	0.0000	0.0000	0.0000	0.0000	0.2373	51.67	51.67	51.67	51.67
2.432	0.0000	0.0000	0.0211	-0.0000	0.0000	0.0182	-0.0000	0.0000	-0.0376	-0.0000	-0.0000	-0.0000	0.0000	0.0000	0.0000	0.0000	0.0000	0.2387	51.67	51.67	51.67	51.67
2.440	0.0000	0.0000	0.0214	-0.0000	0.0000	0.0184	-0.0000	0.0000	-0.0372	-0.0000	-0.0000	-0.0000	0.0000	0.0000	0.0000	0.0000	0.0000	0.2400	51.67	51.67	51.67	51.67
2.448	0.0000	0.0000	0.0219	-0.0000	0.0000	0.0186	-0.0000	0.0000	-0.0366	-0.0000	-0.0000	-0.0000	0.0000	0.0000	0.0000	0.0000	0.0000	0.2413	51.66	51.66	51.66	51.66
2.456	0.0000	0.0000	0.0224	-0.0000	0.0000	0.0189	-0.0000	0.0000	-0.0361	-0.0000	-0.0000	-0.0000	0.0000	0.0000	0.0000	0.0000	0.0000	0.2427	51.65	51.65	51.65	51.65
2.464	0.0000	0.0000	0.0231	-0.0000	0.0000	0.0192	-0.0000	0.0000	-0.0354	-0.0000	-0.0000	-0.0000	0.0000	0.0000	0.0000	0.0000	0.0000	0.2440	51.64	51.64	51.64	51.64
2.472	0.0000	0.0000	0.0238	-0.0000	0.0000	0.0195	-0.0000	0.0000	-0.0347	-0.0000	-0.0000	-0.0000	0.0000	0.0000	0.0000	0.0000	0.0000	0.2453	51.62	51.62	51.62	51.62
2.480	0.0000	0.0000	0.0247	-0.0000	0.0000	0.0200	-0.0000	0.0000	-0.0340	-0.0000	-0.0000	-0.0000	0.0000	0.0000	0.0000	0.0000	0.0000	0.2467	51.59	51.59	51.59	51.59
2.488	0.0000	0.0000	0.0256	-0.0000	0.0000	0.0205	-0.0000	0.0000	-0.0331	-0.0000	-0.0000	-0.0000	0.0000	0.0000	0.0000	0.0000	0.0000	0.2480	51.56	51.56	51.56	51.56
2.496	0.0000	0.0000	0.0267	-0.0000	0.0000	0.0211	-0.0000	0.0000	-0.0322	-0.0000	-0.0000	-0.0000	0.0000	0.0000	0.0000	0.0000	0.0000	0.2493	51.53	51.53	51.53	51.53
2.504	0.0000	0.0000	0.0279	-0.0000	0.0000	0.0218	-0.0000	0.0000	-0.0312	-0.0000	-0.0000	-0.0000	0.0000	0.0000	0.0000	0.0000	0.0000	0.2507	51.49	51.49	51.49	51.49
2.512	0.0000	0.0000	0.0293	-0.0000	0.0000	0.0226	-0.0000	0.0000	-0.0300	-0.0000	-0.0000	-0.0000	0.0000	0.0000	0.0000	0.0000	0.0000	0.2520	51.44	51.44	51.44	51.44
2.520	0.0000	0.0000	0.0308	-0.0000	0.0000	0.0235	-0.0000	0.0000	-0.0288	-0.0000	-0.0000	-0.0000	0.0000	0.0000	0.0000	0.0000	0.0000	0.2533	51.39	51.39	51.39	51.39
2.528	0.0000	0.0000	0.0325	-0.0000	0.0000	0.0245	-0.0000	0.0000	-0.0274	-0.0000	-0.0000	-0.0000	0.0000	0.0000	0.0000	0.0000	0.0000	0.2547	51.33	51.33	51.33	51.33
2.536	0.0000	0.0000	0.0344	-0.0000	0.0000	0.0256	-0.0000	0.0000	-0.0260	-0.0000	-0.0000	-0.0000	0.0000	0.0000	0.0000	0.0000	0.0000	0.2560	51.26	51.26	51.26	51.26
2.544	0.0000	0.0000	0.0364	-0.0000	0.0000	0.0268	-0.0000	0.0000	-0.0244	-0.0000	-0.0000	-0.0000	0.0000	0.0000	0.0000	0.0000	0.0000	0.2573	51.19	51.19	51.19	51.19
2.552	0.0000	0.0000	0.0386	-0.0000	0.0000	0.0282	-0.0000	0.0000	-0.0226	-0.0000	-0.0000	-0.0000	0.0000	0.0000	0.0000	0.0000	0.0000	0.2587	51.12	51.12	51.12	51.12
2.560	0.0000	0.0000	0.0410	-0.0000	0.0000	0.0298	-0.0000	0.0000	-0.0207	-0.0000	-0.0000	-0.0000	0.0000	0.0000	0.0000	0.0000	0.0000	0.2600	51.03	51.03	51.03	51.03
2.568	0.0000	0.0000	0.0436	-0.0000	0.0000	0.0315	-0.0000	0.0000	-0.0187	-0.0000	-0.0000	-0.0000	0.0000	0.0000	0.0000	0.0000	0.0000	0.2613	50.94	50.94	50.94	50.94
2.576	0.0000	0.0000	0.0464	-0.0000	0.0000	0.0333	-0.0000	0.0000	-0.0164	-0.0000	-0.0000	-0.0000	0.0000	0.0000	0.0000	0.0000	0.0000	0.2627	50.84	50.84	50.84	50.84
2.584	0.0000	0.0000	0.0494	-0.0000	0.0000	0.0354	-0.0000	0.0000	-0.0140	-0.0000	-0.0000	-0.0000	0.0000	0.0000	0.0000	0.0000	0.0000	0.2640	50.74	50.74	50.74	50.74
2.592	0.0000	0.0000	0.0527	-0.0000	0.0000	0.0376	-0.0000	0.0000	-0.0115	-0.0000	-0.0000	-0.0000	0.0000	0.0000	0.0000	0.0000	0.0000	0.2653	50.63	50.63	50.63	50.63
2.600	0.0000	0.0000	0.0562	-0.0000	0.0000	0.0400	-0.0000	0.0000	-0.0087	-0.0000	-0.0000	-0.0000	0.0000	0.0000	0.0000	0.0000	0.0000	0.2667	50.51	50.51	50.51	50.51
2.608	0.0000	0.0000	0.0599	-0.0000	0.0000	0.0425	-0.0000	0.0000	-0.0057	-0.0000	-0.0000	-0.0000	0.0000	0.0000	0.0000	0.0000	0.0000	0.2680	50.38	50.38	50.38	50.38
2.616	0.0000	0.0000	0.0638	-0.0000	0.0000	0.0453	-0.0000	0.0000	-0.0026	-0.0000	-0.0000	-0.0000	0.0000	0.0000	0.0000	0.0000	0.0000	0.2693	50.25	50.25	50.25	50.25
2.624	0.0000	0.0000	0.0681	-0.0000	0.0000	0.0483	-0.0000	0.0000	0.0008	-0.0000	-0.0000	-0.0000	0.0000	0.0000	0.0000	0.0000	0.0000	0.2707	50.11	50.11	50.11	50.11
2.632	0.0000	0.0000	0.0726	-0.0000	0.0000	0.0516	-0.0000	0.0000	0.0044	-0.0000	-0.0000	-0.0000	0.0000	0.0000	0.0000	0.0000	0.0000	0.2720	49.96	49.96	49.96	49.96
2.640	0.0000	0.0000	0.0773	-0.0000	0.0000	0.0550	-0.0000	0.0000	0.0082	-0.0000	-0.0000	-0.0000	0.0000	0.0000	0.0000	0.0000	0.0000	0.2733	49.80	49.80	49.80	49.80
2.648	0.0000	0.0000	0.0824	-0.0000	0.0000	0.0587	-0.0000	0.0000	0.0123	-0.0000	-0.0000	-0.0000	0.0000	0.0000	0.0000	0.0000	0.0000	0.2747	49.64	49.64	49.64	49.64
2.656	0.0000	0.0000	0.0878	-0.0000	0.0000	0.0627	-0.0000	0.0000	0.0166	-0.0000	-0.0000	-0.0000	0.0000	0.0000	0.0000	0.0000	0.0000	0.2760	49.47	49.47	49.47	49.47
2.664	0.0000	0.0000	0.0934	-0.0000	0.0000	0.0669	-0.0000	0.0000	0.0212	0.0000	0.0000	0.0000	0.0000	0.0000	0.0000	0.0000	0.0000	0.2773	49.29	49.29	49.29	49.29
2.672	0.0000	-0.0000	0.0993	-0.0000	0.0000	0.0713	-0.0000	0.0000	0.0260	0.0000	0.0000	0.0000	0.0000	0.0000	0.0000	0.0000	0.0000	0.2787	49.10	49.10	49.10	49.10
2.680	0.0000	-0.0000	0.1055	-0.0000	0.0000	0.0761	-0.0001	0.0001	0.0311	0.0000	0.0000	0.0000	0.0000	0.0000	0.0000	0.0000	0.0000	0.2800	48.91	48.91	48.91	48.91
2.688	0.0000	-0.0000	0.1120	-0.0000	0.0000	0.0811	-0.0001	0.0001	0.0365	0.0000	0.0000	0.0000	0.0000	0.0000	0.0000	0.0000	0.0000	0.2813	48.71	48.71	48.71	48.71
2.696	0.0000	-0.0000	0.1187	-0.0000	0.0000	0.0863	-0.0001	0.0001	0.0421	0.0000	0.0000	0.0000	0.0000	0.0000	0.0000	0.0000	0.0000	0.2827	48.51	48.51	48.51	48.51
2.704	0.0000	-0.0000	0.1257	-0.0000	0.0000	0.0919	-0.0001	0.0001	0.0480	0.0000	0.0000	0.0000	0.0000	0.0000	0.0000	0.0000	0.0000	0.2840	48.31	48.31	48.31	48.31
2.712	0.0000	-0.0000	0.1330	-0.0000	0.0000	0.0977	-0.0001	0.0001	0.0541	0.0000	0.0000	0.0000	0.0000	0.0000	0.0000	0.0000	0.0000	0.2853	48.10	48.10	48.11	48.10
2.720	0.0000	-0.0000	0.1405	-0.0000	0.0000	0.1037	-0.0001	0.0001	0.0605	0.0000	0.0000	0.0000	0.0000	0.0000	0.0000	0.0000	0.0000	0.2867	47.90	47.90	47.90	47.90
2.728	0.0000	-0.0000	0.1482	-0.0000	0.0000	0.1101	-0.0001	0.0001	0.0671	0.0000	0.0000	0.0000	0.0000	0.0000	0.0000	0.0000	0.0000	0.2880	47.69	47.69	47.69	47.69
2.736	0.0000	-0.0000	0.1561	-0.0000	0.0000	0.1167	-0.0001	0.0001	0.0740	0.0000	0.0000	0.0000	0.0000	0.0000	0.0000	0.0000	0.0000	0.2893	47.48	47.48	47.48	47.48
2.744	0.0000	-0.0000	0.1643	-0.0000	0.0000	0.1235	-0.0001	0.0001	0.0811	0.0000	0.0000	0.0000	0.0000	0.0000	0.0000	0.0000	0.0000	0.2907	47.27	47.27	47.27	47.27
2.752	0.0000	-0.0000	0.1727	-0.0000	0.0000	0.1306	-0.0001	0.0001	0.0885	0.0000	0.0000	0.0000	0.0000	0.0000	0.0000	0.0000	0.0000	0.2920	47.07	47.07	47.07	47.07
2.760	0.0000	-0.0000	0.1812	-0.0000	0.0000	0.1380	-0.0001	0.0001	0.0960	0.0000	0.0000	0.0000	0.0000	0.0000	0.0000	0.0000	0.0000	0.2933	46.86	46.86	46.86	46.86
2.768	0.0000	-0.0000	0.1900	-0.0000	0.0000	0.1455	-0.0001	0.0001	0.1038	0.0000	0.0000	0.0000	0.0000	0.0000	0.0000	0.0000	0.0000	0.2947	46.65	46.65	46.65	46.65
2.776	0.0000	-0.0000	0.1990	-0.0000	0.0000	0.1534	-0.0001	0.0001	0.1118	0.0000	0.0000	0.0000	0.0000	0.0000	0.0000	0.0000	0.0000	0.2960	46.44	46.44	46.44	46.44
2.784	0.0000	-0.0000	0.2081	-0.0000	0.0000	0.1614	-0.0001	0.0001	0.1200	0.0000	0.0000	0.0000	0.0000	0.0000	0.0000	0.0000	0.0000	0.2973	46.24	46.24	46.24	46.24
2.792	0.0000	-0.0000	0.2174	-0.0000	0.0000	0.1697	-0.0001	0.0001	0.1284	0.0000	0.0000	0.0000	0.0000	0.0000	0.0000	0.0000	0.0000	0.2987	46.04	46.04	46.04	46.04
2.800	0.0000	-0.0000	0.2269	-0.0000	0.0000	0.1782	-0.0001	0.0001	0.1370	0.0000	0.0000	0.0000	0.0000	0.0000	0.0000	0.0000	0.0000	0.3000	45.83	45.83	45.83	45.83
2.808	0.0000	-0.0000	0.2365	-0.0000	0.0000	0.1869	-0.0001	0.0001	0.1458	0.0000	0.0000	0.0000	0.0000	0.0000	0.0000	0.0000	0.0000	0.3013	45.63	45.63	45.63	45.63
2.816	0.0000	-0.0000	0.2462	-0.0000	0.0000	0.1958	-0.0001	0.0001	0.1547	0.0000	0.0000	0.0000	0.0000	0.0000	0.0000	0.0000	0.0000	0.3027	45.44	45.43	45.43	45.43
2.824	0.0000	-0.0000	0.2562	-0.0000	0.0000	0.2049	-0.0001	0.0001	0.1638	0.0000	0.0000	0.0000	0.0000	0.0000	0.0000	0.0000	0.0000	0.3040	45.24	45.24	45.24	45.24
2.832	0.0000	-0.0000	0.2662	-0.0000	0.0000	0.2142	-0.0001	0.0001	0.1730	0.0000	0.0000	0.0000	0.0000	0.0000	0.0000	0.0000	0.0000	0.3053	45.04	45.04	45.04	45.04
2.840	0.0000	-0.0000	0.2764	-0.0000	0.0000	0.2237	-0.0001	0.0001	0.1824	0.0000	0.0000	0.0000	0.0001	0.0001	0.0000	0.0000	0.0000	0.3067	44.85	44.85	44.85	44.85
2.848	0.0000	-0.0000	0.2867	-0.0000	0.0000	0.2333	-0.0001	0.0001	0.1919	0.0000	0.0000	0.0000	0.0001	0.0001	0.0000	0.0000	0.0000	0.3080	44.66	44.66	44.66	44.66
2.856	0.0000	-0.0000	0.2971	-0.0000	0.0000	0.2431	-0.0001	0.0001	0.2016	0.0000	0.0000	0.0000	0.0001	0.0001	0.0000	0.0000	0.0000	0.3093	44.48	44.48	44.48	44.48
2.864	0.0000	-0.0000	0.3076	-0.0000	0.0000	0.2531	-0.0001	0.0001	0.2113	0.0000	0.0000	0.0000	0.0001	0.0001	0.0000	0.0000	0.0000	0.3107	44.29	44.29	44.29	44.29
2.872	0.0000	-0.0000	0.3182	-0.0000	0.0000	0.2632	-0.0001	0.0001	0.2212	0.0000	0.0000	0.0000	0.0001	0.0001	0.0000	0.0000	0.0000	0.3120	44.11	44.11	44.11	44.11
2.880	0.0000	-0.0000	0.3290	-0.0000	0.0000	0.2735	-0.0001	0.0001	0.2312	0.0000	0.0000	0.0000	0.0001	0.0001	0.0000	0.0000	0.0000	0.3133	43.93	43.93	43.93	43.93
2.888	0.0000	-0.0000	0.3398	-0.0000	0.0000	0.2839	-0.0001	0.0001	0.2412	0.0000	0.0000	0.0000	0.0001	0.0001	0.0000	0.0000	0.0000	0.3147	43.75	43.75	43.75	43.75
2.896	0.0000	-0.0000	0.3507	-0.0000	0.0000	0.2945	-0.0001	0.0001	0.2514	0.0000	0.0000	0.0000	0.0001	0.0001	0.0000	0.0000	0.0000	0.3160	43.58	43.58	43.58	43.58
2.904	0.0000	-0.0000	0.3617	-0.0000	0.0000	0.3052	-0.0001	0.0001	0.2616	0.0000	0.0000	0.0000	0.0001	0.0001	0.0000	0.0000	0.0000	0.3173	43.41	43.41	43.41	43.41
2.912	0.0000	-0.0000	0.3727	-0.0000	0.0000	0.3159	-0.0001	0.0001	0.2719	0.0000	0.0000	0.0000	0.0001	0.0001	0.0000	0.0000	0.0000	0.3187	43.24	43.24	43.24	43.24
2.920	0.0000	-0.0000	0.3838	-0.0000	0.0000	0.3269	-0.0001	0.0001	0.2822	0.0000	0.0000	0.0000	0.0001	0.0001	0.0000	0.0000	0.0000	0.3200	43.07	43.07	43.07	43.07
2.928	0.0000	-0.0000	0.3950	-0.0000	0.0000	0.3379	-0.0001	0.0001	0.2926	0.0000	0.0000	0.0000	0.0001	0.0001	0.0000	0.0000	0.0000	0.3213	42.90	42.90	42.90	42.90
2.936	0.0000	-0.0000	0.4062	0.0000	-0.0000	0.3490	-0.0001	0.0001	0.3031	0.0000	0.0000	0.0000	0.0000	0.0000	0.0000	0.0000	0.0000	0.3227	42.74	42.74	42.74	42.74
2.944	0.0000	-0.0000	0.4175	0.0000	-0.0000	0.3602	-0.0001	0.0001	0.3136	0.0000	0.0000	0.0000	0.0000	0.0000	0.0000	0.0000	0.0000	0.3240	42.58	42.58	42.58	42.58
2.952	0.0000	-0.0000	0.4288	0.0000	-0.0000	0.3715	-0.0001	0.0001	0.3241	0.0000	0.0000	0.0000	0.0000	0.0000	0.0000	0.0000	0.0000	0.3253	42.43	42.43	42.43	42.43
2.960	0.0000	-0.0000	0.4402	0.0000	-0.0000	0.3829	-0.0001	0.0001	0.3346	0.0000	0.0000	0.0000	0.0000	0.0000	0.0000	0.0000	0.0000	0.3267	42.27	42.27	42.27	42.27
2.968	0.0000	-0.0000	0.4516	0.0000	-0.0000	0.3943	-0.0001	0.0001	0.3452	0.0000	0.0000	0.0000	0.0000	0.0000	0.0000	0.0000	0.0000	0.3280	42.12	42.12	42.12	42.12
2.976	0.0000	-0.0000	0.4630	0.0000	-0.0000	0.4059	-0.0001	0.0001	0.3558	0.0000	0.0000	0.0000	0.0000	0.0000	0.0000	0.0000	0.0000	0.3293	41.97	41.97	41.97	41.97
2.984	0.0000	-0.0000	0.4745	0.0000	-0.0000	0.4175	-0.0001	0.0001	0.3663	0.0000	0.0000	0.0000	0.0000	0.0000	0.0000	0.0000	0.0000	0.3307	41.83	41.83	41.83	41.83
2.992	0.0000	-0.0000	0.4860	0.0000	-0.0000	0.4291	-0.0001	0.0001	0.3769	0.0000	0.0000	0.0000	0.0000	0.0000	0.0000	0.0000	0.0000	0.3320	41.68	41.68	41.68	41.68
3.000	0.0000	-0.0000	0.4975	0.0000	-0.0000	0.4408	-0.0001	0.0001	0.3875	0.0000	0.0000	0.0000	0.0000	0.0000	0.0000	0.0000	0.0000	0.3333	41.54	41.54	41.54	41.54
3.008	0.0000	-0.0000	0.5090	0.0000	-0.0000	0.4526	-0.0001	0.0001	0.3980	0.0000	0.0000	0.0000	0.0000	0.0000	0.0000	0.0000	0.0000	0.3347	41.40	41.40	41.40	41.40
3.016	0.0000	-0.0000	0.5205	0.0000	-0.0000	0.4644	-0.0001	0.0001	0.4085	0.0000	0.0000	0.0000	0.0000	0.0000	0.0000	0.0000	0.0000	0.3360	41.27	41.27	41.27	41.27
3.024	0.0000	-0.0000	0.5320	0.0000	-0.0000	0.4762	-0.0001	0.0001	0.4190	0.0000	0.0000	0.0000	0.0000	0.0000	0.0000	0.0000	0.0000	0.3373	41.14	41.14	41.14	41.14
3.032	0.0000	-0.0000	0.5435	0.0000	-0.0000	0.4880	-0.0001	0.0001	0.4295	0.0000	0.0000	0.0000	0.0000	0.0000	0.0000	0.0000	0.0000	0.3387	41.00	41.00	41.00	41.00
3.040	0.0000	-0.0000	0.5550	0.0000	-0.0000	0.4999	-0.0001	0.0001	0.4399	0.0000	0.0000	0.0000	0.0000	0.0000	0.0000	0.0000	0.0000	0.3400	40.88	40.88	40.88	40.88
3.048	0.0000	-0.0000	0.5665	0.0000	-0.0000	0.5118	-0.0001	0.0001	0.4503	0.0000	0.0000	0.0000	0.0000	0.0000	0.0000	0.0000	0.0000	0.3413	40.75	40.75	40.75	40.75
3.056	0.0000	-0.0000	0.5780	0.0000	-0.0000	0.5238	-0.0001	0.0001	0.4607	0.0000	0.0000	0.0000	0.0000	0.0000	0.0000	0.0000	0.0000	0.3427	40.63	40.63	40.63	40.63
3.064	0.0000	-0.0000	0.5895	0.0000	-0.0000	0.5357	-0.0001	0.0001	0.4710	0.0000	0.0000	0.0000	0.0000	0.0000	0.0000	0.0000	0.0000	0.3440	40.51	40.51	40.51	40.51
3.072	0.0000	-0.0000	0.6009	0.0000	-0.0000	0.5476	-0.0001	0.0001	0.4812	0.0000	0.0000	0.0000	0.0000	0.0000	0.0000	0.0000	0.0000	0.3453	40.39	40.39	40.39	40.39
3.080	0.0000	-0.0000	0.6124	0.0000	-0.0000	0.5596	-0.0001	0.0001	0.4914	0.0000	0.0000	0.0000	0.0000	0.0000	0.0000	0.0000	0.0000	0.3467	40.27	40.27	40.27	40.27
3.088	0.0000	-0.0000	0.6238	0.0000	-0.0000	0.5715	-0.0001	0.0001	0.5015	0.0000	0.0000	0.0000	0.0000	0.0000	0.0000	0.0000	0.0000	0.3480	40.16	40.16	40.16	40.16
3.096	0.0000	-0.0000	0.6351	0.0000	-0.0000	0.5835	-0.0001	0.0001	0.5115	0.0000	0.0000	0.0000	0.0000	0.0000	0.0000	0.0000	0.0000	0.3493	40.05	40.05	40.05	40.05
3.104	0.0000	-0.0000	0.6465	0.0000	-0.0000	0.5954	-0.0001	0.0001	0.5215	0.0000	0.0000	0.0000	0.0000	0.0000	0.0000	0.0000	0.0000	0.3507	39.94	39.94	39.94	39.94
3.112	0.0000	-0.0000	0.6578	0.0000	-0.0000	0.6073	-0.0001	0.0001	0.5313	0.0000	0.0000	0.0000	0.0000	0.0000	0.0000	0.0000	0.0000	0.3520	39.83	39.83	39.83	39.83
3.120	0.0000	-0.0000	0.6690	0.0000	-0.0000	0.6192	-0.0001	0.0001	0.5411	0.0000	0.0000	0.0000	0.0000	0.0000	0.0000	0.0000	0.0000	0.3533	39.73	39.73	39.73	39.73
3.128	0.0000	-0.0000	0.6802	0.0000	-0.0000	0.6311	-0.0001	0.0001	0.5508	0.0000	0.0000	0.0000	0.0000	0.0000	0.0000	0.0000	0.0000	0.3547	39.62	39.62	39.62	39.62
3.136	0.0000	-0.0000	0.6914	0.0000	-0.0000	0.6429	-0.0001	0.0001	0.5605	0.0000	0.0000	0.0000	0.0000	0.0000	0.0000	0.0000	0.0000	0.3560	39.52	39.52	39.52	39.52
3.144	0.0001	-0.0001	0.7025	0.0000	-0.0000	0.6547	-0.0001	0.0001	0.5700	0.0000	0.0000	0.0000	0.0000	0.0000	0.0000	0.0000	0.0000	0.3573	39.43	39.43	39.43	39.43
3.152	0.0001	-0.0001	0.7136	0.0000	-0.0000	0.6665	-0.0001	0.0001	0.5794	0.0000	0.0000	0.0000	0.0000	0.0000	0.0000	0.0000	0.0000	0.3587	39.33	39.33	39.33	39.33
3.160	0.0001	-0.0001	0.7246	0.0000	-0.0000	0.6782	-0.0001	0.0001	0.5887	0.0000	0.0000	0.0000	0.0000	0.0000	0.0000	0.0000	0.0000	0.3600	39.24	39.24	39.24	39.24
3.168	0.0001	-0.0001	0.7355	0.0000	-0.0000	0.6899	-0.0001	0.0001	0.5980	0.0000	0.0000	0.0000	0.0000	0.0000	0.0000	0.0000	0.0000	0.3613	39.15	39.15	39.15	39.15
3.176	0.0001	-0.0001	0.7464	0.0000	-0.0000	0.7016	-0.0001	0.0001	0.6071	0.0000	0.0000	0.0000	0.0000	0.0000	0.0000	0.0000	0.0000	0.3627	39.06	39.06	39.06	39.06
3.184	0.0001	-0.0001	0.7572	0.0000	-0.0000	0.7132	-0.0001	0.0001	0.6161	0.0000	0.0000	0.0000	0.0000	0.0000	0.0000	0.0000	0.0000	0.3640	38.97	38.97	38.97	38.97
3.192	0.0001	-0.0001	0.7680	0.0000	-0.0000	0.7248	-0.0001	0.0001	0.6250	0.0000	0.0000	0.0000	0.0000	0.0000	0.0000	0.0000	0.0000	0.3653	38.88	38.88	38.88	38.88
3.200	0.0001	-0.0001	0.7787	0.0000	-0.0000	0.7363	-0.0001	0.0001	0.6337	0.0000	0.0000	0.0000	0.0000	0.0000	0.0000	0.0000	0.0000	0.3667	38.80	38.80	38.80	38.80
3.208	0.0001	-0.0001	0.7893	0.0000	-0.0000	0.7477	-0.0001	0.0001	0.6424	0.0000	0.0000	0.0000	0.0000	0.0000	0.0000	0.0000	0.0000	0.3680	38.72	38.72	38.72	38.72
3.216	0.0001	-0.0001	0.7998	0.0000	-0.0000	0.7591	-0.0001	0.0001	0.6509	0.0000	0.0000	0.0000	0.0000	0.0000	0.0000	0.0000	0.0000	0.3693	38.64	38.64	38.64	38.64
3.224	0.0001	-0.0001	0.8103	0.0000	-0.0000	0.7704	-0.0001	0.0001	0.6593	0.0000	0.0000	0.0000	0.0000	0.0000	0.0000	0.0000	0.0000	0.3707	38.57	38.57	38.57	38.57
3.232	0.0001	-0.0001	0.8207	0.0000	-0.0000	0.7817	-0.0001	0.0001	0.6676	0.0000	0.0000	0.0000	0.0000	0.0000	0.0000	0.0000	0.0000	0.3720	38.49	38.49	38.49	38.49
3.240	0.0001	-0.0001	0.8310	0.0000	-0.0000	0.7929	-0.0001	0.0001	0.6758	0.0000	0.0000	0.0000	0.0000	0.0000	0.0000	0.0000	0.0000	0.3733	38.42	38.42	38.42	38.42
3.248	0.0001	-0.0001	0.8412	0.0001	-0.0001	0.8040	-0.0001	0.0001	0.6838	0.0000	0.0000	0.0000	0.0000	0.0000	0.0000	0.0000	0.0000	0.3747	38.35	38.35	38.35	38.35
3.256	0.0001	-0.0001	0.8514	0.0001	-0.0001	0.8150	-0.0001	0.0001	0.6917	0.0000	0.0000	0.0000	0.0000	0.0000	0.0000	0.0000	0.0000	0.3760	38.28	38.28	38.28	38.28
3.264	0.0001	-0.0001	0.8615	0.0001	-0.0001	0.8260	-0.0001	0.0001	0.6994	0.0000	0.0000	0.0000	0.0000	0.0000	0.0000	0.0000	0.0000	0.3773	38.21	38.21	38.21	38.21
3.272	0.0001	-0.0001	0.8714	0.0001	-0.0001	0.8369	-0.0001	0.0001	0.7070	-0.0000	-0.0000	0.0000	0.0000	0.0000	0.0000	0.0000	0.0000	0.3787	38.15	38.15	38.15	38.15
3.280	0.0001	-0.0001	0.8813	0.0001	-0.0001	0.8477	-0.0001	0.0001	0.7145	-0.0000	-0.0000	0.0000	-0.0000	-0.0000	0.0000	0.0000	0.0000	0.3800	38.08	38.08	38.08	38.08
3.288	0.0001	-0.0001	0.8911	0.0001	-0.0001	0.8584	-0.0001	0.0001	0.7218	-0.0000	-0.0000	0.0000	-0.0000	-0.0000	0.0000	0.0000	0.0000	0.3813	38.02	38.02	38.02	38.02
3.296	0.0001	-0.0001	0.9008	0.0001	-0.0001	0.8691	-0.0001	0.0001	0.7290	-0.0000	-0.0000	0.0000	-0.0000	-0.0000	0.0000	0.0000	0.0000	0.3827	37.96	37.96	37.96	37.96
3.304	0.0001	-0.0001	0.9104	0.0001	-0.0001	0.8796	-0.0001	0.0001	0.7361	-0.0000	-0.0000	0.0000	-0.0000	-0.0000	0.0000	0.0000	0.0000	0.3840	37.91	37.91	37.91	37.91
3.312	0.0001	-0.0001	0.9200	0.0001	-0.0001	0.8901	-0.0001	0.0001	0.7430	-0.0000	-0.0000	0.0000	-0.0000	-0.0000	0.0000	0.0000	0.0000	0.3853	37.85	37.85	37.85	37.85
3.320	0.0001	-0.0001	0.9294	0.0001	-0.0001	0.9005	-0.0001	0.0001	0.7497	-0.0000	-0.0000	0.0000	-0.0000	-0.0000	0.0000	0.0000	0.0000	0.3867	37.80	37.80	37.80	37.80
3.328	0.0001	-0.0001	0.9387	0.0001	-0.0001	0.9108	-0.0001	0.0001	0.7564	-0.0000	-0.0000	0.0000	-0.0000	-0.0000	0.0000	0.0000	0.0000	0.3880	37.74	37.74	37.74	37.74
3.336	0.0001	-0.0001	0.9479	0.0001	-0.0001	0.9210	-0.0001	0.0001	0.7628	-0.0000	-0.0000	0.0000	-0.0000	-0.0000	0.0000	0.0000	0.0000	0.3893	37.69	37.69	37.69	37.69
3.344	0.0001	-0.0001	0.9570	0.0001	-0.0001	0.9310	-0.0001	0.0001	0.7691	-0.0000	-0.0000	0.0000	-0.0000	-0.0000	0.0000	0.0000	0.0000	0.3907	37.65	37.65	37.65	37.65
3.352	0.0001	-0.0001	0.9660	0.0001	-0.0001	0.9410	-0.0001	0.0001	0.7753	-0.0000	-0.0000	0.0000	-0.0000	-0.0000	0.0000	0.0000	0.0000	0.3920	37.60	37.60	37.60	37.60
3.360	0.0001	-0.0001	0.9750	0.0001	-0.0001	0.9509	-0.0001	0.0001	0.7813	-0.0000	-0.0000	0.0000	-0.0000	-0.0000	0.0000	0.0000	0.0000	0.3933	37.55	37.55	37.55	37.55
3.368	0.0001	-0.0001	0.9838	0.0001	-0.0001	0.9607	-0.0001	0.0001	0.7872	-0.0000	-0.0000	0.0000	-0.0000	-0.0000	0.0000	0.0000	0.0000	0.3947	37.51	37.51	37.51	37.51
3.376	0.0001	-0.0001	0.9925	0.0001	-0.0001	0.9704	-0.0001	0.0001	0.7929	-0.0000	-0.0000	0.0000	-0.0000	-0.0000	0.0000	0.0000	0.0000	0.3960	37.47	37.47	37.47	37.47
3.384	0.0001	-0.0001	1.0011	0.0001	-0.0001	0.9800	-0.0001	0.0001	0.7984	-0.0000	-0.0000	0.0000	-0.0000	-0.0000	0.0000	0.0000	0.0000	0.3973	37.43	37.43	37.43	37.43
3.392	0.0001	-0.0001	1.0096	0.0001	-0.0001	0.9894	-0.0001	0.0001	0.8038	-0.0000	-0.0000	0.0000	-0.0000	-0.0000	0.0000	0.0000	0.0000	0.3987	37.39	37.39	37.39	37.39
3.400	0.0001	-0.0001	1.0179	0.0001	-0.0001	0.9988	-0.0001	0.0001	0.8090	-0.0000	-0.0000	0.0000	-0.0000	-0.0000	0.0000	0.0000	0.0000	0.4000	37.35	37.35	37.35	37.35
3.408	0.0001	-0.0001	1.0262	0.0001	-0.0001	1.0081	-0.0001	0.0001	0.8141	-0.0000	-0.0000	0.0000	-0.0000	-0.0000	0.0000	0.0000	0.0000	0.4013	37.32	37.32	37.32	37.32
3.416	0.0001	-0.0001	1.0344	0.0001	-0.0001	1.0172	-0.0001	0.0001	0.8190	-0.0000	-0.0000	0.0000	-0.0000	-0.0000	0.0000	0.0000	0.0000	0.4027	37.28	37.28	37.28	37.28
3.424	0.0001	-0.0001	1.0424	0.0001	-0.0001	1.0262	-0.0001	0.0001	0.8238	-0.0000	-0.0000	0.0000	-0.0000	-0.0000	0.0000	0.0000	0.0000	0.4040	37.25	37.25	37.25	37.25
3.432	0.0001	-0.0001	1.0504	0.0001	-0.0001	1.0352	-0.0001	0.0001	0.8284	-0.0000	-0.0000	0.0000	-0.0000	-0.0000	0.0000	0.0000	0.0000	0.4053	37.22	37.22	37.22	37.22
3.440	0.0001	-0.0001	1.0582	0.0001	-0.0001	1.0440	-0.0001	0.0001	0.8329	-0.0000	-0.0000	0.0000	-0.0000	-0.0000	0.0000	0.0000	0.0000	0.4067	37.19	37.19	37.19	37.19
3.448	0.0001	-0.0001	1.0659	0.0001	-0.0001	1.0527	-0.0001	0.0001	0.8372	-0.0000	-0.0000	0.0000	-0.0000	-0.0000	0.0000	0.0000	0.0000	0.4080	37.16	37.16	37.16	37.16
3.456	0.0001	-0.0001	1.0735	0.0001	-0.0001	1.0612	-0.0001	0.0001	0.8413	-0.0000	-0.0000	0.0000	-0.0000	-0.0000	0.0000	0.0000	0.0000	0.4093	37.14	37.14	37.14	37.14
3.464	0.0001	-0.0001	1.0810	0.0001	-0.0001	1.0697	-0.0001	0.0001	0.8453	-0.0000	-0.0000	0.0000	-0.0000	-0.0000	0.0000	0.0000	0.0000	0.4107	37.11	37.11	37.11	37.11
3.472	0.0001	-0.0001	1.0883	0.0001	-0.0001	1.0780	-0.0001	0.0001	0.8491	-0.0000	-0.0000	0.0000	-0.0000	-0.0000	0.0000	0.0000	0.0000	0.4120	37.09	37.09	37.09	37.09
3.480	0.0001	-0.0001	1.0956	0.0001	-0.0001	1.0863	-0.0001	0.0001	0.8528	-0.0000	-0.0000	0.0000	-0.0000	-0.0000	0.0000	0.0000	0.0000	0.4133	37.07	37.07	37.07	37.07
3.488	0.0001	-0.0001	1.1027	0.0001	-0.0001	1.0944	-0.0001	0.0001	0.8563	-0.0000	-0.0000	0.0000	-0.0000	-0.0000	0.0000	0.0000	0.0000	0.4147	37.05	37.05	37.05	37.05
3.496	0.0001	-0.0001	1.1097	0.0001	-0.0001	1.1024	-0.0001	0.0001	0.8596	-0.0000	-0.0000	0.0000	-0.0000	-0.0000	0.0000	0.0000	0.0000	0.4160	37.03	37.03	37.03	37.03
3.504	0.0001	-0.0001	1.1166	0.0001	-0.0001	1.1102	-0.0001	0.0001	0.8628	-0.0000	-0.0000	0.0000	-0.0000	-0.0000	0.0000	0.0000	0.0000	0.4173	37.01	37.01	37.01	37.01
3.512	0.0001	-0.0001	1.1234	0.0001	-0.0001	1.1180	-0.0001	0.0001	0.8658	-0.0000	-0.0000	0.0000	-0.0000	-0.0000	0.0000	0.0000	0.0000	0.4187	37.00	37.00	37.00	37.00
3.520	0.0001	-0.0001	1.1301	0.0001	-0.0001	1.1256	-0.0001	0.0001	0.8687	-0.0000	-0.0000	0.0000	-0.0000	-0.0000	0.0000	0.0000	0.0000	0.4200	36.98	36.98	36.98	36.98
3.528	0.0001	-0.0001	1.1367	0.0001	-0.0001	1.1331	-0.0001	0.0001	0.8714	-0.0000	-0.0000	0.0000	-0.0000	-0.0000	0.0000	0.0000	0.0000	0.4213	36.97	36.97	36.97	36.97
3.536	0.0001	-0.0001	1.1431	0.0001	-0.0001	1.1405	-0.0001	0.0001	0.8740	-0.0000	-0.0000	0.0000	-0.0000	-0.0000	0.0000	0.0000	0.0000	0.4227	36.96	36.96	36.96	36.96
3.544	0.0001	-0.0001	1.1494	0.0001	-0.0001	1.1477	-0.0001	0.0001	0.8764	-0.0000	-0.0000	0.0000	-0.0000	-0.0000	0.0000	0.0000	0.0000	0.4240	36.94	36.94	36.94	36.94
3.552	0.0001	-0.0001	1.1556	0.0001	-0.0001	1.1548	-0.0001	0.0001	0.8786	-0.0000	-0.0000	0.0000	-0.0000	-0.0000	0.0000	0.0000	0.0000	0.4253	36.93	36.93	36.93	36.93
3.560	0.0001	-0.0001	1.1617	0.0001	-0.0001	1.1618	-0.0001	0.0001	0.8807	-0.0000	-0.0000	0.0000	-0.0000	-0.0000	0.0000	0.0000	0.0000	0.4267	36.93	36.93	36.93	36.93
3.568	0.0001	-0.0001	1.1676	0.0001	-0.0001	1.1687	-0.0001	0.0001	0.8827	-0.0000	-0.0000	0.0000	-0.0000	-0.0000	0.0000	0.0000	0.0000	0.4280	36.92	36.92	36.92	36.92
3.576	0.0001	-0.0001	1.1735	0.0001	-0.0001	1.1755	-0.0001	0.0001	0.8844	-0.0000	-0.0000	0.0000	-0.0000	-0.0000	0.0000	0.0000	0.0000	0.4293	36.91	36.91	36.91	36.91
3.584	0.0001	-0.0001	1.1792	0.0001	-0.0001	1.1821	-0.0001	0.0001	0.8861	-0.0000	-0.0000	0.0000	-0.0000	-0.0000	0.0000	0.0000	0.0000	0.4307	36.91	36.91	36.91	36.91
3.592	0.0001	-0.0001	1.1848	0.0001	-0.0001	1.1886	-0.0001	0.0001	0.8875	-0.0000	-0.0000	0.0000	-0.0000	-0.0000	0.0000	0.0000	0.0000	0.4320	36.90	36.90	36.90	36.90
3.600	0.0001	-0.0001	1.1903	0.0001	-0.0001	1.1950	-0.0001	0.0001	0.8889	-0.0000	-0.0000	0.0000	-0.0000	-0.0000	0.0000	0.0000	0.0000	0.4333	36.90	36.90	36.90	36.90
3.608	0.0001	-0.0001	1.1956	0.0001	-0.0001	1.2012	-0.0001	0.0001	0.8900	-0.0000	-0.0000	0.0000	-0.0000	-0.0000	0.0000	0.0000	0.0000	0.4347	36.90	36.90	36.90	36.90
3.616	0.0001	-0.0001	1.2009	0.0001	-0.0001	1.2074	-0.0001	0.0001	0.8911	-0.0000	-0.0000	0.0000	-0.0000	-0.0000	0.0000	0.0000	0.0000	0.4360	36.90	36.90	36.90	36.90
3.624	0.0001	-0.0001	1.2060	0.0001	-0.0001	1.2134	-0.0001	0.0001	0.8919	-0.0000	-0.0000	0.0000	-0.0000	-0.0000	0.0000	0.0000	0.0000	0.4373	36.90	36.90	36.90	36.90
3.632	0.0001	-0.0001	1.2110	0.0001	-0.0001	1.2192	-0.0001	0.0001	0.8927	-0.0000	-0.0000	0.0000	-0.0000	-0.0000	0.0000	0.0000	0.0000	0.4387	36.90	36.90	36.90	36.90
3.640	0.0001	-0.0001	1.2159	0.0001	-0.0001	1.2250	-0.0001	0.0001	0.8933	-0.0000	-0.0000	0.0000	-0.0000	-0.0000	0.0000	0.0000	0.0000	0.4400	36.91	36.91	36.91	36.91
3.648	0.0001	-0.0001	1.2207	0.0001	-0.0001	1.2306	-0.0001	0.0001	0.8937	-0.0000	-0.0000	0.0000	-0.0000	-0.0000	0.0000	0.0000	0.0000	0.4413	36.91	36.91	36.91	36.91
3.656	0.0001	-0.0001	1.2253	0.0001	-0.0001	1.2361	-0.0001	0.0001	0.8940	-0.0000	-0.0000	0.0000	-0.0000	-0.0000	0.0000	0.0000	0.0000	0.4427	36.92	36.92	36.92	36.92
3.664	0.0001	-0.0001	1.2299	0.0001	-0.0001	1.2415	-0.0001	0.0001	0.8941	-0.0000	-0.0000	0.0000	-0.0000	-0.0000	0.0000	0.0000	0.0000	0.4440	36.92	36.92	36.92	36.92
3.672	0.0001	-0.0001	1.2343	0.0001	-0.0001	1.2467	-0.0001	0.0001	0.8941	-0.0000	-0.0000	0.0000	-0.0000	-0.0000	0.0000	0.0000	0.0000	0.4453	36.93	36.93	36.93	36.93
3.680	0.0001	-0.0001	1.2386	0.0001	-0.0001	1.2518	-0.0001	0.0001	0.8940	-0.0000	-0.0000	0.0000	-0.0000	-0.0000	0.0000	0.0000	0.0000	0.4467	36.94	36.94	36.94	36.94
3.688	0.0002	-0.0002	1.2428	0.0001	-0.0001	1.2568	-0.0001	0.0001	0.8937	-0.0000	-0.0000	0.0000	-0.0000	-0.0000	0.0000	0.0000	0.0000	0.4480	36.95	36.95	36.95	36.95
3.696	0.0002	-0.0002	1.2469	0.0001	-0.0001	1.2617	-0.0001	0.0001	0.8933	-0.0000	-0.0000	0.0000	-0.0001	-0.0001	0.0000	0.0000	0.0000	0.4493	36.96	36.96	36.96	36.96
3.704	0.0002	-0.0002	1.2508	0.0001	-0.0001	1.2665	-0.0001	0.0001	0.8927	-0.0001	-0.0001	0.0000	-0.0001	-0.0001	0.0000	0.0000	0.0000	0.4507	36.97	36.97	36.97	36.97
3.712	0.0002	-0.0002	1.2547	0.0001	-0.0001	1.2711	-0.0001	0.0001	0.8920	-0.0001	-0.0001	0.0000	-0.0001	-0.0001	0.0000	0.0000	0.0000	0.4520	36.98	36.98	36.98	36.98
3.720	0.0002	-0.0002	1.2584	0.0001	-0.0001	1.2756	-0.0001	0.0001	0.8912	-0.0001	-0.0001	0.0000	-0.0001	-0.0001	0.0000	0.0000	0.0000	0.4533	36.99	36.99	36.99	36.99
3.728	0.0002	-0.0002	1.2620	0.0001	-0.0001	1.2800	-0.0001	0.0001	0.8902	-0.0001	-0.0001	0.0000	-0.0001	-0.0001	0.0000	0.0000	0.0000	0.4547	37.00	37.00	37.00	37.00
3.736	0.0002	-0.0002	1.2655	0.0001	-0.0001	1.2842	-0.0001	0.0001	0.8891	-0.0001	-0.0001	0.0000	-0.0001	-0.0001	0.0000	0.0000	0.0000	0.4560	37.02	37.02	37.02	37.02
3.744	0.0002	-0.0002	1.2689	0.0001	-0.0001	1.2884	-0.0001	0.0001	0.8878	-0.0001	-0.0001	0.0000	-0.0001	-0.0001	0.0000	0.0000	0.0000	0.4573	37.03	37.03	37.03	37.03
3.752	0.0002	-0.0002	1.2722	0.0001	-0.0001	1.2924	-0.0001	0.0001	0.8865	-0.0001	-0.0001	0.0000	-0.0001	-0.0001	0.0000	0.0000	0.0000	0.4587	37.05	37.05	37.05	37.05
3.760	0.0002	-0.0002	1.2754	0.0001	-0.0001	1.2963	-0.0001	0.0001	0.8850	-0.0001	-0.0001	0.0000	-0.0001	-0.0001	0.0000	0.0000	0.0000	0.4600	37.07	37.07	37.07	37.07
3.768	0.0002	-0.0002	1.2784	0.0001	-0.0001	1.3000	-0.0001	0.0001	0.8833	-0.0001	-0.0001	0.0000	-0.0001	-0.0001	0.0000	0.0000	0.0000	0.4613	37.09	37.09	37.09	37.09
3.776	0.0002	-0.0002	1.2814	0.0001	-0.0001	1.3037	-0.0001	0.0001	0.8816	-0.0001	-0.0001	0.0000	-0.0001	-0.0001	0.0000	0.0000	0.0000	0.4627	37.10	37.10	37.10	37.10
3.784	0.0002	-0.0002	1.2842	0.0001	-0.0001	1.3072	-0.0001	0.0001	0.8797	-0.0001	-0.0001	0.0000	-0.0001	-0.0001	0.0000	0.0000	0.0000	0.4640	37.12	37.12	37.12	37.12
3.792	0.0002	-0.0002	1.2869	0.0001	-0.0001	1.3106	-0.0001	0.0001	0.8777	-0.0001	-0.0001	0.0000	-0.0001	-0.0001	0.0000	0.0000	0.0000	0.4653	37.14	37.14	37.14	37.14
3.800	0.0002	-0.0002	1.2896	0.0001	-0.0001	1.3139	-0.0001	0.0001	0.8755	-0.0001	-0.0001	0.0000	-0.0001	-0.0001	0.0000	0.0000	0.0000	0.4667	37.16	37.16	37.16	37.16
3.808	0.0002	-0.0002	1.2921	0.0002	-0.0002	1.3171	-0.0001	0.0001	0.8733	-0.0001	-0.0001	0.0000	-0.0001	-0.0001	0.0000	0.0000	0.0000	0.4680	37.19	37.19	37.19	37.19
3.816	0.0002	-0.0002	1.2945	0.0002	-0.0002	1.3201	-0.0001	0.0001	0.8709	-0.0001	-0.0001	0.0000	-0.0001	-0.0001	0.0000	0.0000	0.0000	0.4693	37.21	37.21	37.21	37.21
3.824	0.0002	-0.0002	1.2968	0.0002	-0.0002	1.3231	-0.0001	0.0001	0.8684	-0.0001	-0.0001	0.0000	-0.0001	-0.0001	0.0000	0.0000	0.0000	0.4707	37.23	37.23	37.23	37.23
3.832	0.0002	-0.0002	1.2990	0.0002	-0.0002	1.3259	-0.0001	0.0001	0.8658	-0.0001	-0.0001	0.0000	-0.0001	-0.0001	0.0000	0.0000	0.0000	0.4720	37.25	37.25	37.25	37.25
3.840	0.0002	-0.0002	1.3011	0.0002	-0.0002	1.3286	-0.0001	0.0001	0.8631	-0.0001	-0.0001	0.0000	-0.0001	-0.0001	0.0000	0.0000	0.0000	0.4733	37.28	37.28	37.28	37.28
3.848	0.0002	-0.0002	1.3031	0.0002	-0.0002	1.3312	-0.0001	0.0001	0.8602	-0.0001	-0.0001	0.0000	-0.0001	-0.0001	0.0000	0.0000	0.0000	0.4747	37.30	37.30	37.30	37.30
3.856	0.0002	-0.0002	1.3049	0.0002	-0.0002	1.3337	-0.0001	0.0001	0.8573	-0.0001	-0.0001	0.0000	-0.0001	-0.0001	0.0000	0.0000	0.0000	0.4760	37.33	37.33	37.33	37.33
3.864	0.0002	-0.0002	1.3067	0.0002	-0.0002	1.3360	-0.0001	0.0001	0.8542	-0.0001	-0.0001	0.0000	-0.0001	-0.0001	0.0000	0.0000	0.0000	0.4773	37.35	37.35	37.35	37.35
3.872	0.0002	-0.0002	1.3084	0.0002	-0.0002	1.3383	-0.0001	0.0001	0.8510	-0.0001	-0.0001	0.0000	-0.0001	-0.0001	0.0000	0.0000	0.0000	0.4787	37.38	37.38	37.38	37.38
3.880	0.0002	-0.0002	1.3100	0.0002	-0.0002	1.3404	-0.0001	0.0001	0.8477	-0.0001	-0.0001	0.0000	-0.0001	-0.0001	0.0000	0.0000	0.0000	0.4800	37.41	37.41	37.41	37.41
3.888	0.0002	-0.0002	1.3115	0.0002	-0.0002	1.3424	-0.0001	0.0001	0.8444	-0.0001	-0.0001	0.0000	-0.0001	-0.0001	0.0000	0.0000	0.0000	0.4813	37.43	37.43	37.43	37.43
3.896	0.0002	-0.0002	1.3129	0.0002	-0.0002	1.3444	-0.0001	0.0001	0.8409	-0.0001	-0.0001	0.0000	-0.0001	-0.0001	0.0000	0.0000	0.0000	0.4827	37.46	37.46	37.46	37.46
3.904	0.0002	-0.0002	1.3141	0.0002	-0.0002	1.3462	-0.0001	0.0001	0.8373	-0.0001	-0.0001	0.0000	-0.0001	-0.0001	0.0000	0.0000	0.0000	0.4840	37.49	37.49	37.49	37.49
3.912	0.0002	-0.0002	1.3153	0.0002	-0.0002	1.3479	-0.0001	0.0001	0.8336	-0.0001	-0.0001	0.0000	-0.0001	-0.0001	0.0000	0.0000	0.0000	0.4853	37.52	37.52	37.52	37.52
3.920	0.0002	-0.0002	1.3164	0.0002	-0.0002	1.3495	-0.0001	0.0001	0.8298	-0.0001	-0.0001	0.0000	-0.0001	-0.0001	0.0000	0.0000	0.0000	0.4867	37.55	37.55	37.55	37.55
3.928	0.0002	-0.0002	1.3174	0.0002	-0.0002	1.3510	-0.0001	0.0001	0.8259	-0.0001	-0.0001	0.0000	-0.0001	-0.0001	0.0000	0.0000	0.0000	0.4880	37.58	37.58	37.58	37.58
3.936	0.0002	-0.0002	1.3183	0.0002	-0.0002	1.3524	-0.0001	0.0001	0.8219	-0.0001	-0.0001	0.0000	-0.0001	-0.0001	0.0000	0.0000	0.0000	0.4893	37.61	37.61	37.61	37.61
